risorsa,url,title,editor,author,contributor,shelfmark,page,place of publishing,year of publishing,issuance,identifier,licence,geographic place,city,latitude,longitude,href
23960498297,https://farm5.staticflickr.com/4578/23960498297_04829832e4_o.jpg,Palermo – S. Erasmo,,"Di Benedetto, Enrico",Collezione del Fondo Di Benedetto,Biblioteca comunale di Palermo - Sezione manoscritti e rari,328,pp. 418. E. Di Benedetto: Palermo - varia XIX – XX secolo,,collezione,VI (328),CC BY SA 4.0,"Porticciolo di Sant'Erasmo, Palermo",Palermo,38.112704,13.378536,https://www.flickr.com/photos/biblioteca-comunale-palermo/23960498297
23962250567,https://farm5.staticflickr.com/4520/23962250567_f9b9c25519_o.jpg,Palermo - Sant'Erasmo - Arrivo del tonno - II.,,"Di Benedetto, Enrico",Collezione del Fondo Di Benedetto,Biblioteca comunale di Palermo - Sezione manoscritti e rari,332,pp. 418. E. Di Benedetto: Palermo - varia XIX – XX secolo,,collezione,VI (332),CC BY SA 4.0,"Porticciolo di Sant'Erasmo, Palermo",Palermo,38.113295,13.378493,https://www.flickr.com/photos/biblioteca-comunale-palermo/23962250567
23962313127,https://farm5.staticflickr.com/4563/23962313127_d4e25bb319_o.jpg,Palermo – Piccolo Porto S. Erasmo III.,,"Di Benedetto, Enrico",Collezione del Fondo Di Benedetto,Biblioteca comunale di Palermo - Sezione manoscritti e rari,334,pp. 418. E. Di Benedetto: Palermo - varia XIX – XX secolo,,collezione,VI (334),CC BY SA 4.0,"Porticciolo di Sant'Erasmo, Palermo",Palermo,38.112704,13.378536,https://www.flickr.com/photos/biblioteca-comunale-palermo/23962313127
23983458577,https://farm5.staticflickr.com/4578/23983458577_43b3317a20_o.jpg,Nel Porto di Palermo,"Devaux, Paris","Di Benedetto, Enrico",Collezione del Fondo Di Benedetto,Biblioteca comunale di Palermo - Sezione manoscritti e rari,344,pp. 418. E. Di Benedetto: Palermo - varia XIX – XX secolo,,collezione,VI (344),CC BY SA 4.0,"Foro Umberto I, Palermo",Palermo,38.112704,13.378536,https://www.flickr.com/photos/biblioteca-comunale-palermo/23983458577
24005459107,https://farm5.staticflickr.com/4544/24005459107_6f5e02a64e_o.jpg,Palermo - Foro Italico e Antemurale,,"Di Benedetto, Enrico",Collezione del Fondo Di Benedetto,Biblioteca comunale di Palermo - Sezione manoscritti e rari,348,pp. 418. E. Di Benedetto: Palermo - varia XIX – XX secolo,,collezione,VI (348),CC BY SA 4.0,"Foro Umberto I, Palermo",Palermo,38.115617,13.374996,https://www.flickr.com/photos/biblioteca-comunale-palermo/24005459107
24091794518,https://farm5.staticflickr.com/4483/24091794518_f727a56a46_o.jpg,Cala e Monte Pellegrino,"Dr. Trenkler Co, Lipsia","Di Benedetto, Enrico",Collezione del Fondo Di Benedetto,Biblioteca comunale di Palermo - Sezione manoscritti e rari,2,pp. 418. E. Di Benedetto: Palermo - varia XIX – XX secolo,,collezione,VI (2),CC BY SA 4.0,"Cala, Castello a Mare, Monte Pellegrino, Palermo",Palermo,38.119061,13.367271,https://www.flickr.com/photos/biblioteca-comunale-palermo/24091794518
24209172018,https://farm5.staticflickr.com/4476/24209172018_3baeb62b93_o.jpg,Palermo - Foro Umberto I e Monte Pellegrino,,"Di Benedetto, Enrico",Collezione del Fondo Di Benedetto,Biblioteca comunale di Palermo - Sezione manoscritti e rari,25,pp. 418. E. Di Benedetto: Palermo - varia XIX – XX secolo,,collezione,VI (25),CC BY SA 4.0,"La Cala, Foro Umberto I, Foro Italico, tempietto della musica, la Marina, Monte Pellegrino, porto, Palermo",Palermo,38.117508,13.373665,https://www.flickr.com/photos/biblioteca-comunale-palermo/24209172018
24254932888,https://farm5.staticflickr.com/4503/24254932888_52cd8f876f_o.jpg,Il Porto Nuovo,,"Di Benedetto, Enrico",Collezione del Fondo Di Benedetto,Biblioteca comunale di Palermo - Sezione manoscritti e rari,32,pp. 418. E. Di Benedetto: Palermo - varia XIX – XX secolo,,collezione,VI (32),CC BY SA 4.0,"Porto nuovo, molo, banchina, Palermo",Palermo,38.125619,13.365833,https://www.flickr.com/photos/biblioteca-comunale-palermo/24254932888
24256637448,https://farm5.staticflickr.com/4444/24256637448_64bdbd421b_o.jpg,Palermo - Porto,,"Di Benedetto, Enrico",Collezione del Fondo Di Benedetto,Biblioteca comunale di Palermo - Sezione manoscritti e rari,35,pp. 418. E. Di Benedetto: Palermo - varia XIX – XX secolo,,collezione,VI (35),CC BY SA 4.0,"Porto, barche, molo, banchina, navi, Palermo",Palermo,38.125501,13.368065,https://www.flickr.com/photos/biblioteca-comunale-palermo/24256637448
24408262328,https://farm5.staticflickr.com/4551/24408262328_9623ca9063_o.jpg,Nel porto di Palermo,Z.B.,"Di Benedetto, Enrico",Collezione del Fondo Di Benedetto,Biblioteca comunale di Palermo - Sezione manoscritti e rari,42,pp. 418. E. Di Benedetto: Palermo - varia XIX – XX secolo,,collezione,VI (42),CC BY SA 4.0,"Porto, barche, canottieri, navi, Palermo",Palermo,38.120284,13.369545,https://www.flickr.com/photos/biblioteca-comunale-palermo/24408262328
24408433498,https://farm5.staticflickr.com/4529/24408433498_69043866db_o.jpg,Palermo - Il Porto con veduta della Città,,"Di Benedetto, Enrico",Collezione del Fondo Di Benedetto,Biblioteca comunale di Palermo - Sezione manoscritti e rari,43,pp. 418. E. Di Benedetto: Palermo - varia XIX – XX secolo,,collezione,VI (43),CC BY SA 4.0,"Porto, barche, molo, banchina, Palermo",Palermo,38.132328,13.362936,https://www.flickr.com/photos/biblioteca-comunale-palermo/24408433498
24409782298,https://farm5.staticflickr.com/4560/24409782298_75b98e6198_o.jpg,Palermo,,"Di Benedetto, Enrico",Collezione del Fondo Di Benedetto,Biblioteca comunale di Palermo - Sezione manoscritti e rari,370,pp. 418. E. Di Benedetto: Palermo - varia XIX – XX secolo,,collezione,VI (370),CC BY SA 4.0,"Foro Italico, Foro Umberto I, barche, Palermo",Palermo,38.118070,13.375682,https://www.flickr.com/photos/biblioteca-comunale-palermo/24409782298
24410244438,https://farm5.staticflickr.com/4518/24410244438_392092b6cf_o.jpg,Palermo - Porto,,"Di Benedetto, Enrico",Collezione del Fondo Di Benedetto,Biblioteca comunale di Palermo - Sezione manoscritti e rari,46,pp. 418. E. Di Benedetto: Palermo - varia XIX – XX secolo,,collezione,VI (46),CC BY SA 4.0,"Porto, barche, molo, banchina, navi, Palermo",Palermo,38.125619,13.365833,https://www.flickr.com/photos/biblioteca-comunale-palermo/24410244438
24513540388,https://farm5.staticflickr.com/4546/24513540388_2975575193_o.jpg,Palermo - Barca da pesca,,"Di Benedetto, Enrico",Collezione del Fondo Di Benedetto,Biblioteca comunale di Palermo - Sezione manoscritti e rari,58,pp. 418. E. Di Benedetto: Palermo - varia XIX – XX secolo,,collezione,VI (58),CC BY SA 4.0,"Porto, barche, molo, banchina, navi, Monte Pellegrino, Palermo",Palermo,38.132058,13.373322,https://www.flickr.com/photos/biblioteca-comunale-palermo/24513540388
24513735118,https://farm5.staticflickr.com/4571/24513735118_76e9af4e29_o.jpg,Palermo - Molo Puntone,,"Di Benedetto, Enrico",Collezione del Fondo Di Benedetto,Biblioteca comunale di Palermo - Sezione manoscritti e rari,60,pp. 418. E. Di Benedetto: Palermo - varia XIX – XX secolo,,collezione,VI (60),CC BY SA 4.0,"Porto, barche, navi, lanterna, Palermo",Palermo,38.132058,13.373322,https://www.flickr.com/photos/biblioteca-comunale-palermo/24513735118
24514126988,https://farm5.staticflickr.com/4519/24514126988_808100182a_o.jpg,Palermo - Porta Nuova,,"Di Benedetto, Enrico",Collezione del Fondo Di Benedetto,Biblioteca comunale di Palermo - Sezione manoscritti e rari,109,pp. 418. E. Di Benedetto: Palermo - varia XIX – XX secolo,,collezione,VI (109),CC BY SA 4.0,"porta Nuova, Palermo",Palermo,38.112213,13.352615,https://www.flickr.com/photos/biblioteca-comunale-palermo/24514126988
24537517068,https://farm5.staticflickr.com/4557/24537517068_55d721f21d_o.jpg,Palermo - Porta Felice Marina,,"Di Benedetto, Enrico",Collezione del Fondo Di Benedetto,Biblioteca comunale di Palermo - Sezione manoscritti e rari,121,pp. 418. E. Di Benedetto: Palermo - varia XIX – XX secolo,,collezione,VI (121),CC BY SA 4.0,"porta Felice, foro Italico, foro Umberto I, Palermo",Palermo,38.119753,13.371337,https://www.flickr.com/photos/biblioteca-comunale-palermo/24537517068
24538921528,https://farm5.staticflickr.com/4559/24538921528_3119202f4b_o.jpg,Palermo - Molo,"Dr. Trenkler Co., Lipsia","Di Benedetto, Enrico",Collezione del Fondo Di Benedetto,Biblioteca comunale di Palermo - Sezione manoscritti e rari,73,pp. 418. E. Di Benedetto: Palermo - varia XIX – XX secolo,,collezione,VI (73),CC BY SA 4.0,"Porto, barche, navi, molo, banchina, faro, Lanterna, Palermo",Palermo,38.135400,13.369116,https://www.flickr.com/photos/biblioteca-comunale-palermo/24538921528
24539149868,https://farm5.staticflickr.com/4584/24539149868_c9084da577_o.jpg,"Palermo - Porta di Termini, oggi Garibaldi","Dr. Trenkler Co., Lipsia","Di Benedetto, Enrico",Collezione del Fondo Di Benedetto,Biblioteca comunale di Palermo - Sezione manoscritti e rari,128,pp. 418. E. Di Benedetto: Palermo - varia XIX – XX secolo,,collezione,VI (128),CC BY SA 4.0,"porta di termini, porta Garibaldi, Palermo",Palermo,38.111624,13.368258,https://www.flickr.com/photos/biblioteca-comunale-palermo/24539149868
24539173958,https://farm5.staticflickr.com/4542/24539173958_26f6a720f1_o.jpg,Palermo - Porto con partenza Piroscafo per Napoli,,"Di Benedetto, Enrico",Collezione del Fondo Di Benedetto,Biblioteca comunale di Palermo - Sezione manoscritti e rari,75,pp. 418. E. Di Benedetto: Palermo - varia XIX – XX secolo,,collezione,VI (75),CC BY SA 4.0,"Porto, barche, navi, molo, banchina, Piroscafo, Palermo",Palermo,38.130176,13.363623,https://www.flickr.com/photos/biblioteca-comunale-palermo/24539173958
24539366888,https://farm5.staticflickr.com/4515/24539366888_66cd22e371_o.jpg,Palermo - Barca a Vela,,"Di Benedetto, Enrico",Collezione del Fondo Di Benedetto,Biblioteca comunale di Palermo - Sezione manoscritti e rari,78,pp. 418. E. Di Benedetto: Palermo - varia XIX – XX secolo,,collezione,VI (78),CC BY SA 4.0,"Porto, barche a vela, pescatori, navi, molo, banchina, lanterna, faro, Palermo",Palermo,38.132328,13.362936,https://www.flickr.com/photos/biblioteca-comunale-palermo/24539366888
24539371248,https://farm5.staticflickr.com/4568/24539371248_fb589e5a70_o.jpg,Palermo - Porta S.^Antonino,"Devaux, Paris","Di Benedetto, Enrico",Collezione del Fondo Di Benedetto,Biblioteca comunale di Palermo - Sezione manoscritti e rari,130,pp. 418. E. Di Benedetto: Palermo - varia XIX – XX secolo,,collezione,VI (130),CC BY SA 4.0,"porta Sant'Antonino, chiesa di Sant'Antonino, Palermo",Palermo,38.110266,13.364996,https://www.flickr.com/photos/biblioteca-comunale-palermo/24539371248
24540188788,https://farm5.staticflickr.com/4582/24540188788_2b4f4e531b_o.jpg,Palermo - Capitaneria del Porto,,"Di Benedetto, Enrico",Collezione del Fondo Di Benedetto,Biblioteca comunale di Palermo - Sezione manoscritti e rari,81,pp. 418. E. Di Benedetto: Palermo - varia XIX – XX secolo,,collezione,VI (81),CC BY SA 4.0,"Porto, barche, pescatori, pesca, capitaneria, dogana, Palermo",Palermo,38.121120,13.370704,https://www.flickr.com/photos/biblioteca-comunale-palermo/24540188788
24540337488,https://farm5.staticflickr.com/4585/24540337488_1bb1ece67b_o.jpg,Porta Doganella,"Dr. Stenkler Co., Lipsia","Di Benedetto, Enrico",Collezione del Fondo Di Benedetto,Biblioteca comunale di Palermo - Sezione manoscritti e rari,134,pp. 418. E. Di Benedetto: Palermo - varia XIX – XX secolo,,collezione,VI (134),CC BY SA 4.0,"La Cala, Porta Doganella, Monte Pellegrino, Castello a Mare, Chiesa di Santa Maria della Catena, Palermo",Palermo,38.119297,13.369009,https://www.flickr.com/photos/biblioteca-comunale-palermo/24540337488
24540400498,https://farm5.staticflickr.com/4576/24540400498_7eb0d09f65_o.jpg,Palermo,,"Di Benedetto, Enrico",Collezione del Fondo Di Benedetto,Biblioteca comunale di Palermo - Sezione manoscritti e rari,83,pp. 418. E. Di Benedetto: Palermo - varia XIX – XX secolo,,collezione,VI (83),CC BY SA 4.0,"Porto, barche, barche a vela, Palermo",Palermo,38.122504,13.380188,https://www.flickr.com/photos/biblioteca-comunale-palermo/24540400498
24540694658,https://farm5.staticflickr.com/4554/24540694658_614d2ba4db_o.jpg,Palermo - Il Monte Pellegrino col porto e l'antemurale,"Dr Trenkler Co., Lipsia","Di Benedetto, Enrico",Collezione del Fondo Di Benedetto,Biblioteca comunale di Palermo - Sezione manoscritti e rari,87,pp. 418. E. Di Benedetto: Palermo - varia XIX – XX secolo,,collezione,VI (87),CC BY SA 4.0,"Porto, barche, nave, molo, banchina, Monte Pellegrino, Dogana, capitaneria, La Cala, Palermo",Palermo,38.121120,13.370704,https://www.flickr.com/photos/biblioteca-comunale-palermo/24540694658
24540719758,https://farm5.staticflickr.com/4563/24540719758_c9d8bc3957_o.jpg,Palermo - Porta Guccia,"Devaux, Paris","Di Benedetto, Enrico",Collezione del Fondo Di Benedetto,Biblioteca comunale di Palermo - Sezione manoscritti e rari,138,pp. 418. E. Di Benedetto: Palermo - varia XIX – XX secolo,,collezione,VI (138),CC BY SA 4.0,"Porta Guccia, Palermo",Palermo,38.115980,13.351317,https://www.flickr.com/photos/biblioteca-comunale-palermo/24540719758
24540814148,https://farm5.staticflickr.com/4569/24540814148_2328857368_o.jpg,Palermo - Porto Antemurale e Monte Pellegrino,ed. G. Genova Scarpinato,"Di Benedetto, Enrico",Collezione del Fondo Di Benedetto,Biblioteca comunale di Palermo - Sezione manoscritti e rari,89,pp. 418. E. Di Benedetto: Palermo - varia XIX – XX secolo,,collezione,VI (89),CC BY SA 4.0,"Porto, barche, nave, molo, banchina, Monte Pellegrino, Antemurale, Palermo",Palermo,38.123213,13.372421,https://www.flickr.com/photos/biblioteca-comunale-palermo/24540814148
24540922888,https://farm5.staticflickr.com/4536/24540922888_9b5790c572_o.jpg,Palermo - Porta dei Greci,"Devaux, Paris","Di Benedetto, Enrico",Collezione del Fondo Di Benedetto,Biblioteca comunale di Palermo - Sezione manoscritti e rari,141,pp. 418. E. Di Benedetto: Palermo - varia XIX – XX secolo,,collezione,VI (141),CC BY SA 4.0,"Palazzo Forcelli, Porta dei Greci, Palazzo Baucina, Palermo",Palermo,38.117508,13.373665,https://www.flickr.com/photos/biblioteca-comunale-palermo/24540922888
24540980828,https://farm5.staticflickr.com/4578/24540980828_9a40d1e668_o.jpg,Palermo - Porta Castro-S. Giovanni Eremiti,"Devaux, Paris","Di Benedetto, Enrico",Collezione del Fondo Di Benedetto,Biblioteca comunale di Palermo - Sezione manoscritti e rari,142,pp. 418. E. Di Benedetto: Palermo - varia XIX – XX secolo,,collezione,VI (142),CC BY SA 4.0,"San Giovanni degli Eremiti, chiesa di San Giuseppe Cafasso, via dei benedettini, Porta Castro, Palermo",Palermo,38.109320,13.355040,https://www.flickr.com/photos/biblioteca-comunale-palermo/24540980828
24541357148,https://farm5.staticflickr.com/4562/24541357148_38c6c71c9e_o.jpg,Palermo - Ospedale S. Saverio dal Corso Tukery,"F. Verderosa, Palermo","Di Benedetto, Enrico",Collezione del Fondo Di Benedetto,Biblioteca comunale di Palermo - Sezione manoscritti e rari,145,pp. 418. E. Di Benedetto: Palermo - varia XIX – XX secolo,,collezione,VI (145),CC BY SA 4.0,"Porta Giglio, Ospedale San Saverio, Palermo",Palermo,38.109658,13.358473,https://www.flickr.com/photos/biblioteca-comunale-palermo/24541357148
24561600048,https://farm5.staticflickr.com/4547/24561600048_bdcbb09bc2_o.jpg,Palermo - Molo e Monte Pellegrino,,"Di Benedetto, Enrico",Collezione del Fondo Di Benedetto,Biblioteca comunale di Palermo - Sezione manoscritti e rari,91,pp. 418. E. Di Benedetto: Palermo - varia XIX – XX secolo,,collezione,VI (91),CC BY SA 4.0,"Porto, barche, nave, molo, banchina, Monte Pellegrino, Palermo",Palermo,38.131957,13.370060,https://www.flickr.com/photos/biblioteca-comunale-palermo/24561600048
24562133978,https://farm5.staticflickr.com/4532/24562133978_6f60813c8a_o.jpg,Palermo - Corso calatafimi,"dr. Trenkler Co., Lipsia","Di Benedetto, Enrico",Collezione del Fondo Di Benedetto,Biblioteca comunale di Palermo - Sezione manoscritti e rari,237,pp. 418. E. Di Benedetto: Palermo - varia XIX – XX secolo,,collezione,VI (237),CC BY SA 4.0,"Palermo, corso Calatafimi, piazza Indipendenza, albergo delle povere",Palermo,38.111835,13.351650,https://www.flickr.com/photos/biblioteca-comunale-palermo/24562133978
24562171198,https://farm5.staticflickr.com/4577/24562171198_ef119d00d1_o.jpg,Palermo - Corso Calatafimi,,"Di Benedetto, Enrico",Collezione del Fondo Di Benedetto,Biblioteca comunale di Palermo - Sezione manoscritti e rari,238,pp. 418. E. Di Benedetto: Palermo - varia XIX – XX secolo,,collezione,VI (238),CC BY SA 4.0,"Palermo, corso Calatafimi, tram",Palermo,38.111092,13.349869,https://www.flickr.com/photos/biblioteca-comunale-palermo/24562171198
24581695538,https://farm5.staticflickr.com/4581/24581695538_956d3e0659_o.jpg,Palermo - via Macqueda,,"Di Benedetto, Enrico",Collezione del Fondo Di Benedetto,Biblioteca comunale di Palermo - Sezione manoscritti e rari,244,pp. 418. E. Di Benedetto: Palermo - varia XIX – XX secolo,,collezione,VI (244),CC BY SA 4.0,"Palermo, via Macqueda, via Maqueda, piazza Verdi,",Palermo,38.121390,13.357315,https://www.flickr.com/photos/biblioteca-comunale-palermo/24581695538
24581934608,https://farm5.staticflickr.com/4559/24581934608_2937727909_o.jpg,Palermo - via Ruggero Settimo,"Devaux, Paris","Di Benedetto, Enrico",Collezione del Fondo Di Benedetto,Biblioteca comunale di Palermo - Sezione manoscritti e rari,247,pp. 418. E. Di Benedetto: Palermo - varia XIX – XX secolo,,collezione,VI (247),CC BY SA 4.0,"Palermo, via Ruggero Settimo, piazza Castelnuovo, Politeama",Palermo,38.123956,13.356049,https://www.flickr.com/photos/biblioteca-comunale-palermo/24581934608
24663686398,https://farm5.staticflickr.com/4573/24663686398_c7925309aa_o.jpg,Piazza Vigliena,,"Di Benedetto, Enrico",Collezione del Fondo Di Benedetto,Biblioteca comunale di Palermo - Sezione manoscritti e rari,159,pp. 418. E. Di Benedetto: Palermo - varia XIX – XX secolo,,collezione,VI (159),CC BY SA 4.0,"Piazza Vigliena, Quattro Canti, Quattro Cantoni, Palermo",Palermo,38.115726,13.361413,https://www.flickr.com/photos/biblioteca-comunale-palermo/24663686398
24664911248,https://farm5.staticflickr.com/4563/24664911248_6a624c2194_o.jpg,Palermo - La gran Fontana di Piazza Pretoria,,"Di Benedetto, Enrico",Collezione del Fondo Di Benedetto,Biblioteca comunale di Palermo - Sezione manoscritti e rari,165,pp. 418. E. Di Benedetto: Palermo - varia XIX – XX secolo,,collezione,VI (165),CC BY SA 4.0,"Piazza Pretoria, Piazza della Vergona, Palermo",Palermo,38.115415,13.362078,https://www.flickr.com/photos/biblioteca-comunale-palermo/24664911248
24722842768,https://farm5.staticflickr.com/4518/24722842768_14dd9e1027_o.jpg,Piazza S. Anna,"Dr. Trenkler Co, Lipsia","Di Benedetto, Enrico",Collezione del Fondo Di Benedetto,Biblioteca comunale di Palermo - Sezione manoscritti e rari,193,pp. 418. E. Di Benedetto: Palermo - varia XIX – XX secolo,,collezione,VI (193),CC BY SA 4.0,"Piazza S. Anna, Palermo",Palermo,38.115169,13.365104,https://www.flickr.com/photos/biblioteca-comunale-palermo/24722842768
24723531748,https://farm5.staticflickr.com/4583/24723531748_55e6634808_o.jpg,Palermo - via Matteo Bonello,,"Di Benedetto, Enrico",Collezione del Fondo Di Benedetto,Biblioteca comunale di Palermo - Sezione manoscritti e rari,264,pp. 418. E. Di Benedetto: Palermo - varia XIX – XX secolo,,collezione,VI (264),CC BY SA 4.0,"Palermo, via Matteo Bonello, cattedrale",Palermo,38.113810,13.355684,https://www.flickr.com/photos/biblioteca-comunale-palermo/24723531748
24723722448,https://farm5.staticflickr.com/4531/24723722448_8eacc15a08_o.jpg,Palermo - Palermo - viale Libertà,,"Di Benedetto, Enrico",Collezione del Fondo Di Benedetto,Biblioteca comunale di Palermo - Sezione manoscritti e rari,266,pp. 418. E. Di Benedetto: Palermo - varia XIX – XX secolo,,collezione,VI (266),CC BY SA 4.0,"Palermo, via della Libertà, via Libertà, viale Libertà, Politeama, piazza Castelnuovo",Palermo,38.124581,13.355748,https://www.flickr.com/photos/biblioteca-comunale-palermo/24723722448
24803009958,https://farm5.staticflickr.com/4530/24803009958_e5d9634121_o.jpg,Palermo - Piazza Marina - Giardino Garibaldi e fontana del Garraffo,,"Di Benedetto, Enrico",Collezione del Fondo Di Benedetto,Biblioteca comunale di Palermo - Sezione manoscritti e rari,201,pp. 418. E. Di Benedetto: Palermo - varia XIX – XX secolo,,collezione,VI (201),CC BY SA 4.0,"Piazza Marina, Giardino Garibaldi, Palermo",Palermo,38.117965,13.368000,https://www.flickr.com/photos/biblioteca-comunale-palermo/24803009958
24822085338,https://farm5.staticflickr.com/4522/24822085338_f2ed0bbdcf_o.jpg,Palermo,,"Di Benedetto, Enrico",Collezione del Fondo Di Benedetto,Biblioteca comunale di Palermo - Sezione manoscritti e rari,214,pp. 418. E. Di Benedetto: Palermo - varia XIX – XX secolo,,collezione,VI (214),CC BY SA 4.0,"Piazza Santa Maria degli Angeli, Palermo",Palermo,38.118402,13.367807,https://www.flickr.com/photos/biblioteca-comunale-palermo/24822085338
24824204198,https://farm5.staticflickr.com/4521/24824204198_d62123bebf_o.jpg,Palermo - via Cavour,,"Di Benedetto, Enrico",Collezione del Fondo Di Benedetto,Biblioteca comunale di Palermo - Sezione manoscritti e rari,282,pp. 418. E. Di Benedetto: Palermo - varia XIX – XX secolo,,collezione,VI (282),CC BY SA 4.0,"Palermo, via Cavour, piazza Verdi",Palermo,38.121137,13.357357,https://www.flickr.com/photos/biblioteca-comunale-palermo/24824204198
24824688528,https://farm5.staticflickr.com/4566/24824688528_52db354401_o.jpg,Palermo - via Roma,,"Di Benedetto, Enrico",Collezione del Fondo Di Benedetto,Biblioteca comunale di Palermo - Sezione manoscritti e rari,286,pp. 418. E. Di Benedetto: Palermo - varia XIX – XX secolo,,collezione,VI (286),CC BY SA 4.0,"Palermo, via Roma",Palermo,38.117448,13.362808,https://www.flickr.com/photos/biblioteca-comunale-palermo/24824688528
24845796148,https://farm5.staticflickr.com/4544/24845796148_0728c8c30d_o.jpg,Palermo - via Roma,,"Di Benedetto, Enrico",Collezione del Fondo Di Benedetto,Biblioteca comunale di Palermo - Sezione manoscritti e rari,295,pp. 418. E. Di Benedetto: Palermo - varia XIX – XX secolo,,collezione,VI (295),CC BY SA 4.0,"Palermo, via Roma",Palermo,38.119331,13.362218,https://www.flickr.com/photos/biblioteca-comunale-palermo/24845796148
24845878818,https://farm5.staticflickr.com/4569/24845878818_774d23288f_o.jpg,Palermo - via Borgo e chiesa di S. Lucia,,"Di Benedetto, Enrico",Collezione del Fondo Di Benedetto,Biblioteca comunale di Palermo - Sezione manoscritti e rari,296,pp. 418. E. Di Benedetto: Palermo - varia XIX – XX secolo,,collezione,VI (296),CC BY SA 4.0,"Palermo, via Borgo e chiesa di S. Lucia",Palermo,38.129695,13.362421,https://www.flickr.com/photos/biblioteca-comunale-palermo/24845878818
24846812258,https://farm5.staticflickr.com/4546/24846812258_d510812de8_o.jpg,Palermo - Ponte di mare,"A. Vaccaro Cangialosi, Palermo","Di Benedetto, Enrico",Collezione del Fondo Di Benedetto,Biblioteca comunale di Palermo - Sezione manoscritti e rari,317,pp. 418. E. Di Benedetto: Palermo - varia XIX – XX secolo,,collezione,VI (317),CC BY SA 4.0,"Ponte di mare, Palermo",Palermo,38.109606,13.379491,https://www.flickr.com/photos/biblioteca-comunale-palermo/24846812258
24954547798,https://farm5.staticflickr.com/4528/24954547798_3972d328d0_o.jpg,Palermo – Piccolo Porto S. Erasmo IV.,,"Di Benedetto, Enrico",Collezione del Fondo Di Benedetto,Biblioteca comunale di Palermo - Sezione manoscritti e rari,337,pp. 418. E. Di Benedetto: Palermo - varia XIX – XX secolo,,collezione,VI (337),CC BY SA 4.0,"Porticciolo di Sant'Erasmo, Palermo",Palermo,38.112704,13.378536,https://www.flickr.com/photos/biblioteca-comunale-palermo/24954547798
24954625178,https://farm5.staticflickr.com/4554/24954625178_122bda1526_o.jpg,Palermo – Foro Italico e Monte Pellegrino,"Dr. Trenkler Co, Lipsia","Di Benedetto, Enrico",Collezione del Fondo Di Benedetto,Biblioteca comunale di Palermo - Sezione manoscritti e rari,340,pp. 418. E. Di Benedetto: Palermo - varia XIX – XX secolo,,collezione,VI (340),CC BY SA 4.0,"Foro Italico, Palermo",Palermo,38.115617,13.374996,https://www.flickr.com/photos/biblioteca-comunale-palermo/24954625178
24976040928,https://farm5.staticflickr.com/4568/24976040928_aae0437ed0_o.jpg,Palermo - Foro Umberto I e Monte Pellegrino visti dal mare,"F. Verderosa, Palermo","Di Benedetto, Enrico",Collezione del Fondo Di Benedetto,Biblioteca comunale di Palermo - Sezione manoscritti e rari,342,pp. 418. E. Di Benedetto: Palermo - varia XIX – XX secolo,,collezione,VI (342),CC BY SA 4.0,"Foro Umberto I, Palermo",Palermo,38.112704,13.378536,https://www.flickr.com/photos/biblioteca-comunale-palermo/24976040928
25504183677,https://farm5.staticflickr.com/4746/25504183677_0b5df55136_o.jpg,Il disastro di via Lattarini la Croce rossa sui luoghi,,"Di Benedetto, Enrico",Collezione del Fondo Di Benedetto,Biblioteca comunale di Palermo - Sezione manoscritti e rari,357,pp. 418. E. Di Benedetto: Palermo - varia XIX – XX secolo,,collezione,VI (357),CC BY SA 4.0,"via Lattarini, Palermo",Palermo,38.115591,13.364567,https://www.flickr.com/photos/biblioteca-comunale-palermo/25504183677
25504289757,https://farm5.staticflickr.com/4676/25504289757_5d677c351f_o.jpg,il disastro di via Lattarini sbocchi in piazza della Borsa incordonati,,"Di Benedetto, Enrico",Collezione del Fondo Di Benedetto,Biblioteca comunale di Palermo - Sezione manoscritti e rari,359,pp. 418. E. Di Benedetto: Palermo - varia XIX – XX secolo,,collezione,VI (359),CC BY SA 4.0,"Piazza della Borsa, via Lattarini, Palermo",Palermo,38.115355,13.364599,https://www.flickr.com/photos/biblioteca-comunale-palermo/25504289757
25504326307,https://farm5.staticflickr.com/4609/25504326307_6ee9dcf735_o.jpg,il disastro di via Lattarini lavori per il crollo di un muro pericolante,,"Di Benedetto, Enrico",Collezione del Fondo Di Benedetto,Biblioteca comunale di Palermo - Sezione manoscritti e rari,360,pp. 418. E. Di Benedetto: Palermo - varia XIX – XX secolo,,collezione,VI (360),CC BY SA 4.0,"via Lattarini, Palermo",Palermo,38.115853,13.364535,https://www.flickr.com/photos/biblioteca-comunale-palermo/25504326307
25505293117,https://farm5.staticflickr.com/4606/25505293117_1dc4150d9e_o.jpg,Palermo – Foro Umberto I. Lo Statuto. Il tenente generale Crema e le Autorità,,"Di Benedetto, Enrico",Collezione del Fondo Di Benedetto,Biblioteca comunale di Palermo - Sezione manoscritti e rari,373,pp. 418. E. Di Benedetto: Palermo - varia XIX – XX secolo,,collezione,VI (373),CC BY SA 4.0,"foro Umberto I, Foro Italico, Palermo",Palermo,38.118554,13.372099,https://www.flickr.com/photos/biblioteca-comunale-palermo/25505293117
25505431387,https://farm5.staticflickr.com/4603/25505431387_e0aa36eb10_o.jpg,Palermo – Foro Umberto I. Lo Statuto. Rivista Militare,,"Di Benedetto, Enrico",Collezione del Fondo Di Benedetto,Biblioteca comunale di Palermo - Sezione manoscritti e rari,376,pp. 418. E. Di Benedetto: Palermo - varia XIX – XX secolo,,collezione,VI (376),CC BY SA 4.0,"foro Umberto I, Foro Italico, Palermo",Palermo,38.118335,13.372313,https://www.flickr.com/photos/biblioteca-comunale-palermo/25505431387
25505803237,https://farm5.staticflickr.com/4744/25505803237_22716665d4_o.jpg,Palermo – Foro Italico e Monte Pellegrino,,"Di Benedetto, Enrico",Collezione del Fondo Di Benedetto,Biblioteca comunale di Palermo - Sezione manoscritti e rari,383,pp. 418. E. Di Benedetto: Palermo - varia XIX – XX secolo,,collezione,VI (383),CC BY SA 4.0,"foro Umberto I, Foro Italico, Marina, Palermo",Palermo,38.117744,13.372828,https://www.flickr.com/photos/biblioteca-comunale-palermo/25505803237
25623733247,https://farm5.staticflickr.com/4707/25623733247_6a5c79e0af_o.jpg,Palermo,,"Di Benedetto, Enrico",Collezione del Fondo Di Benedetto,Biblioteca comunale di Palermo - Sezione manoscritti e rari,400,pp. 418. E. Di Benedetto: Palermo - varia XIX – XX secolo,,collezione,VI (400),CC BY SA 4.0,"corso dei Mille, Stabilimento Mulino Virga",Palermo,38.107356,13.371230,https://www.flickr.com/photos/biblioteca-comunale-palermo/25623733247
25761133747,https://farm5.staticflickr.com/4759/25761133747_eab0c9d4b5_o.jpg,Palermo - Fiume Oreto,,"Di Benedetto, Enrico",Collezione del Fondo Di Benedetto,Biblioteca comunale di Palermo - Sezione manoscritti e rari,417,pp. 418. E. Di Benedetto: Palermo - varia XIX – XX secolo,,collezione,VI (417),CC BY SA 4.0,"Fiume Oreto, Palermo",Palermo,38.111815,13.379029,https://www.flickr.com/photos/biblioteca-comunale-palermo/25761133747
26260065599,https://farm5.staticflickr.com/4452/26260065599_be20d5f310_o.jpg,Palermo - Cala e,,"Di Benedetto, Enrico",Collezione del Fondo Di Benedetto,Biblioteca comunale di Palermo - Sezione manoscritti e rari,11,pp. 418. E. Di Benedetto: Palermo - varia XIX – XX secolo,,collezione,VI (11),CC BY SA 4.0,"La Cala, porto, porta Carbone, Palermo",Palermo,38.119221,13.367174,https://www.flickr.com/photos/biblioteca-comunale-palermo/26260065599
26260490989,https://farm5.staticflickr.com/4468/26260490989_262682227c_o.jpg,Palermo - Cala - Imbarco - Emigranti,,"Di Benedetto, Enrico",Collezione del Fondo Di Benedetto,Biblioteca comunale di Palermo - Sezione manoscritti e rari,14,pp. 418. E. Di Benedetto: Palermo - varia XIX – XX secolo,,collezione,VI (14),CC BY SA 4.0,"La Cala, emigranti, imbarco, porto, Palermo",Palermo,38.119221,13.367174,https://www.flickr.com/photos/biblioteca-comunale-palermo/26260490989
26331713639,https://farm5.staticflickr.com/4513/26331713639_6a5a5cc29b_o.jpg,Palermo - Porto,,"Di Benedetto, Enrico",Collezione del Fondo Di Benedetto,Biblioteca comunale di Palermo - Sezione manoscritti e rari,33,pp. 418. E. Di Benedetto: Palermo - varia XIX – XX secolo,,collezione,VI (33),CC BY SA 4.0,"Porto, Monte Pellegrino, molo, banchina, barche, nave Palermo",Palermo,38.121120,13.370704,https://www.flickr.com/photos/biblioteca-comunale-palermo/26331713639
26332269479,https://farm5.staticflickr.com/4459/26332269479_16238e3a68_o.jpg,Palermo - Veduta del Porto,,"Di Benedetto, Enrico",Collezione del Fondo Di Benedetto,Biblioteca comunale di Palermo - Sezione manoscritti e rari,34,pp. 418. E. Di Benedetto: Palermo - varia XIX – XX secolo,,collezione,VI (34),CC BY SA 4.0,"Porto, barche, molo, banchina, Palermo",Palermo,38.125501,13.368065,https://www.flickr.com/photos/biblioteca-comunale-palermo/26332269479
26332464669,https://farm5.staticflickr.com/4503/26332464669_4006d7834b_o.jpg,Palermo - Porto,,"Di Benedetto, Enrico",Collezione del Fondo Di Benedetto,Biblioteca comunale di Palermo - Sezione manoscritti e rari,37,pp. 418. E. Di Benedetto: Palermo - varia XIX – XX secolo,,collezione,VI (37),CC BY SA 4.0,"Porto, barche, molo, banchina, navi, Palermo",Palermo,38.125619,13.365833,https://www.flickr.com/photos/biblioteca-comunale-palermo/26332464669
26482143179,https://farm5.staticflickr.com/4558/26482143179_6268d11b56_o.jpg,Monte Pellegrino,,"Di Benedetto, Enrico",Collezione del Fondo Di Benedetto,Biblioteca comunale di Palermo - Sezione manoscritti e rari,39,pp. 418. E. Di Benedetto: Palermo - varia XIX – XX secolo,,collezione,VI (39),CC BY SA 4.0,"Porto, barche, molo, banchina, navi, Monte Pellegrino, Palermo",Palermo,38.119221,13.367174,https://www.flickr.com/photos/biblioteca-comunale-palermo/26482143179
26482215229,https://farm5.staticflickr.com/4576/26482215229_8a0fcdd358_o.jpg,Veduta del Porto,,"Di Benedetto, Enrico",Collezione del Fondo Di Benedetto,Biblioteca comunale di Palermo - Sezione manoscritti e rari,40,pp. 418. E. Di Benedetto: Palermo - varia XIX – XX secolo,,collezione,VI (40),CC BY SA 4.0,"Porto, barche, veduta, molo, banchina, navi, Palermo",Palermo,38.127332,13.365780,https://www.flickr.com/photos/biblioteca-comunale-palermo/26482215229
26503200939,https://farm5.staticflickr.com/4527/26503200939_3231c77bb6_o.jpg,Palermo - Il Porto con veduta della Città,"Dr. Trenkler Co., Lipsia","Di Benedetto, Enrico",Collezione del Fondo Di Benedetto,Biblioteca comunale di Palermo - Sezione manoscritti e rari,41,pp. 418. E. Di Benedetto: Palermo - varia XIX – XX secolo,,collezione,VI (41),CC BY SA 4.0,"Porto, barche, molo, banchina, navi, Palermo",Palermo,38.127332,13.365780,https://www.flickr.com/photos/biblioteca-comunale-palermo/26503200939
26505545768,https://farm5.staticflickr.com/4672/26505545768_f2fe4c8cf6_o.jpg,Palermo – Foro Italico col Monte Pellegrino,,"Di Benedetto, Enrico",Collezione del Fondo Di Benedetto,Biblioteca comunale di Palermo - Sezione manoscritti e rari,365,pp. 418. E. Di Benedetto: Palermo - varia XIX – XX secolo,,collezione,VI (365),CC BY SA 4.0,"Foro Italico, Palermo",Palermo,38.117727,13.372614,https://www.flickr.com/photos/biblioteca-comunale-palermo/26505545768
26506520138,https://farm5.staticflickr.com/4666/26506520138_f2e232b0bc_o.jpg,Palermo – Foro Umberto I. Lo Statuto. Rivista di garibaldini,,"Di Benedetto, Enrico",Collezione del Fondo Di Benedetto,Biblioteca comunale di Palermo - Sezione manoscritti e rari,379,pp. 418. E. Di Benedetto: Palermo - varia XIX – XX secolo,,collezione,VI (379),CC BY SA 4.0,"foro Umberto I, Foro Italico, Palermo",Palermo,38.118284,13.372313,https://www.flickr.com/photos/biblioteca-comunale-palermo/26506520138
26506565929,https://farm5.staticflickr.com/4564/26506565929_6375d1db05_o.jpg,Palermo - Banchina d'approdo,,"Di Benedetto, Enrico",Collezione del Fondo Di Benedetto,Biblioteca comunale di Palermo - Sezione manoscritti e rari,55,pp. 418. E. Di Benedetto: Palermo - varia XIX – XX secolo,,collezione,VI (55),CC BY SA 4.0,"Porto, barche, molo, banchina, navi, Monte Pellegrino, Palermo",Palermo,38.132328,13.362936,https://www.flickr.com/photos/biblioteca-comunale-palermo/26506565929
26506583428,https://farm5.staticflickr.com/4609/26506583428_3f3dbc5e32_o.jpg,Palermo – Foro Italico e Monte Pellegrino,,"Di Benedetto, Enrico",Collezione del Fondo Di Benedetto,Biblioteca comunale di Palermo - Sezione manoscritti e rari,381,pp. 418. E. Di Benedetto: Palermo - varia XIX – XX secolo,,collezione,VI (381),CC BY SA 4.0,"foro Umberto I, Foro Italico, Marina, Palermo",Palermo,38.117659,13.372657,https://www.flickr.com/photos/biblioteca-comunale-palermo/26506583428
26506640178,https://farm5.staticflickr.com/4622/26506640178_189df2986d_o.jpg,Palermo – Foro Italico,,"Di Benedetto, Enrico",Collezione del Fondo Di Benedetto,Biblioteca comunale di Palermo - Sezione manoscritti e rari,382,pp. 418. E. Di Benedetto: Palermo - varia XIX – XX secolo,,collezione,VI (382),CC BY SA 4.0,"foro Umberto I, Foro Italico, Marina, Palermo",Palermo,38.120073,13.373343,https://www.flickr.com/photos/biblioteca-comunale-palermo/26506640178
26512935687,https://farm1.staticflickr.com/895/26512935687_868f8f655c_o.jpg,Palermo - Zisa,,,Collezione del Fondo Di Benedetto,Biblioteca comunale di Palermo - Sezione manoscritti e rari,14,pp. 401. E. Di Benedetto: Palermo - varia XIX – XX secolo,,collezione,VII (14),CC BY SA 4.0,"Palermo, Zisa, castello della Zisa",Palermo,38.116984,13.341050,https://www.flickr.com/photos/biblioteca-comunale-palermo/26512935687
26524640918,https://farm5.staticflickr.com/4694/26524640918_cb49cebfbb_o.jpg,Palermo - Porto,,"Di Benedetto, Enrico",Collezione del Fondo Di Benedetto,Biblioteca comunale di Palermo - Sezione manoscritti e rari,95,pp. 418. E. Di Benedetto: Palermo - varia XIX – XX secolo,,collezione,VI (95),CC BY SA 4.0,"Porto, Cala, Palermo",Palermo,38.119659,13.368708,https://www.flickr.com/photos/biblioteca-comunale-palermo/26524640918
26545516938,https://farm5.staticflickr.com/4704/26545516938_91445b4d96_o.jpg,Palermo - Panorama della Marina,Devaux Paris,,Collezione del Fondo Di Benedetto,Biblioteca comunale di Palermo - Sezione manoscritti e rari,391,pp. 418. E. Di Benedetto: Palermo - varia XIX – XX secolo,,collezione,VI (391),CC BY SA 4.0,"Palermo, Foro Italico,Foro Umberto I, Marina",Palermo,38.118689,13.374545,https://www.flickr.com/photos/biblioteca-comunale-palermo/26545516938
26609011779,https://farm5.staticflickr.com/4558/26609011779_3e4bacc417_o.jpg,Palermo - Dogana - I.,,"Di Benedetto, Enrico",Collezione del Fondo Di Benedetto,Biblioteca comunale di Palermo - Sezione manoscritti e rari,63,pp. 418. E. Di Benedetto: Palermo - varia XIX – XX secolo,,collezione,VI (63),CC BY SA 4.0,"Porto, barche, navi, molo, dogana, Palermo",Palermo,38.121120,13.370704,https://www.flickr.com/photos/biblioteca-comunale-palermo/26609011779
26609388289,https://farm5.staticflickr.com/4564/26609388289_1600656f55_o.jpg,Palermo - Il Monte Pellegrino dal Molo,,"Di Benedetto, Enrico",Collezione del Fondo Di Benedetto,Biblioteca comunale di Palermo - Sezione manoscritti e rari,67,pp. 418. E. Di Benedetto: Palermo - varia XIX – XX secolo,,collezione,VI (67),CC BY SA 4.0,"Porto, barche, navi, molo, banchina, Lanterna, faro, Monte Pellegrino, Palermo",Palermo,38.131957,13.370060,https://www.flickr.com/photos/biblioteca-comunale-palermo/26609388289
26623047728,https://farm5.staticflickr.com/4622/26623047728_b2ffee653d_o.jpg,Palermo – Foro Umberto I,,"Di Benedetto, Enrico",Collezione del Fondo Di Benedetto,Biblioteca comunale di Palermo - Sezione manoscritti e rari,396,pp. 418. E. Di Benedetto: Palermo - varia XIX – XX secolo,,collezione,VI (396),CC BY SA 4.0,"Foro Italico, Foro Umberto I, Palermo",Palermo,38.115590,13.374180,https://www.flickr.com/photos/biblioteca-comunale-palermo/26623047728
26623380118,https://farm5.staticflickr.com/4699/26623380118_d41a182021_o.jpg,Palermo - Kalsa - Antico quartiere arabo,Sciutto,"Di Benedetto, Enrico",Collezione del Fondo Di Benedetto,Biblioteca comunale di Palermo - Sezione manoscritti e rari,401,pp. 418. E. Di Benedetto: Palermo - varia XIX – XX secolo,,collezione,VI (401),CC BY SA 4.0,Kalsa,Palermo,38.115725,13.372421,https://www.flickr.com/photos/biblioteca-comunale-palermo/26623380118
26623991258,https://farm5.staticflickr.com/4615/26623991258_2abaf8a259_o.jpg,Palermo – Via Libertà,,"Di Benedetto, Enrico",Collezione del Fondo Di Benedetto,Biblioteca comunale di Palermo - Sezione manoscritti e rari,410,pp. 418. E. Di Benedetto: Palermo - varia XIX – XX secolo,,collezione,VI (410),CC BY SA 4.0,via Libertà,Palermo,38.131327,13.351253,https://www.flickr.com/photos/biblioteca-comunale-palermo/26623991258
26624173348,https://farm5.staticflickr.com/4721/26624173348_a486854026_o.jpg,Palermo - P.za Castello - Mercato della frutta,,"Di Benedetto, Enrico",Collezione del Fondo Di Benedetto,Biblioteca comunale di Palermo - Sezione manoscritti e rari,411,pp. 418. E. Di Benedetto: Palermo - varia XIX – XX secolo,,collezione,VI (411),CC BY SA 4.0,piazza Castello,Palermo,38.120631,13.366413,https://www.flickr.com/photos/biblioteca-comunale-palermo/26624173348
26632645749,https://farm5.staticflickr.com/4570/26632645749_6ce09a26f4_o.jpg,Palermo - Porta Felice e Foro Umberto I,,"Di Benedetto, Enrico",Collezione del Fondo Di Benedetto,Biblioteca comunale di Palermo - Sezione manoscritti e rari,124,pp. 418. E. Di Benedetto: Palermo - varia XIX – XX secolo,,collezione,VI (124),CC BY SA 4.0,"porta Felice, Foro Umberto I, Foro Italico, Palermo",Palermo,38.119753,13.371337,https://www.flickr.com/photos/biblioteca-comunale-palermo/26632645749
26634396369,https://farm5.staticflickr.com/4571/26634396369_e87022be58_o.jpg,Palermo - Veduta del Porto,"Verderosa, Palermo","Di Benedetto, Enrico",Collezione del Fondo Di Benedetto,Biblioteca comunale di Palermo - Sezione manoscritti e rari,77,pp. 418. E. Di Benedetto: Palermo - varia XIX – XX secolo,,collezione,VI (77),CC BY SA 4.0,"Porto, barche, navi, molo, banchina, lanterna, faro, Palermo",Palermo,38.128412,13.374309,https://www.flickr.com/photos/biblioteca-comunale-palermo/26634396369
26635296469,https://farm5.staticflickr.com/4524/26635296469_832a430dd0_o.jpg,Palermo - Antemurale,,"Di Benedetto, Enrico",Collezione del Fondo Di Benedetto,Biblioteca comunale di Palermo - Sezione manoscritti e rari,82,pp. 418. E. Di Benedetto: Palermo - varia XIX – XX secolo,,collezione,VI (82),CC BY SA 4.0,"Porto, barche, molo, banchina, nave, Monte Pellegrino, Palermo",Palermo,38.128412,13.374309,https://www.flickr.com/photos/biblioteca-comunale-palermo/26635296469
26635522059,https://farm5.staticflickr.com/4559/26635522059_48d0f81413_o.jpg,Palermo - Spiazzo davanti la Porta d'Ossuna,"F. Verderosa, Palermo","Di Benedetto, Enrico",Collezione del Fondo Di Benedetto,Biblioteca comunale di Palermo - Sezione manoscritti e rari,136,pp. 418. E. Di Benedetto: Palermo - varia XIX – XX secolo,,collezione,VI (136),CC BY SA 4.0,"Porta d'Ossuna, corso Alberto Amedeo, Palermo",Palermo,38.115836,13.351210,https://www.flickr.com/photos/biblioteca-comunale-palermo/26635522059
26635540409,https://farm5.staticflickr.com/4532/26635540409_32274d05a5_o.jpg,Palermo - Il Monte Pellegrino col porto e l'antemurale,Alterocca Terni fot. Alinari,"Di Benedetto, Enrico",Collezione del Fondo Di Benedetto,Biblioteca comunale di Palermo - Sezione manoscritti e rari,85,pp. 418. E. Di Benedetto: Palermo - varia XIX – XX secolo,,collezione,VI (85),CC BY SA 4.0,"Porto, barche, nave, molo, banchina, Monte Pellegrino, Dogana, capitaneria, La Cala, Palermo",Palermo,38.121120,13.370704,https://www.flickr.com/photos/biblioteca-comunale-palermo/26635540409
26635650069,https://farm5.staticflickr.com/4556/26635650069_fbaca0832e_o.jpg,Palermo - Monte Pellegrino dal molo,,"Di Benedetto, Enrico",Collezione del Fondo Di Benedetto,Biblioteca comunale di Palermo - Sezione manoscritti e rari,86,pp. 418. E. Di Benedetto: Palermo - varia XIX – XX secolo,,collezione,VI (86),CC BY SA 4.0,"Porto, barche, nave, molo, banchina, Monte Pellegrino, Palermo",Palermo,38.123213,13.372421,https://www.flickr.com/photos/biblioteca-comunale-palermo/26635650069
26635916489,https://farm5.staticflickr.com/4515/26635916489_92f56cdd79_o.jpg,Palermo - Porta S. Agata,"F. Verderosa, Palermo","Di Benedetto, Enrico",Collezione del Fondo Di Benedetto,Biblioteca comunale di Palermo - Sezione manoscritti e rari,139,pp. 418. E. Di Benedetto: Palermo - varia XIX – XX secolo,,collezione,VI (139),CC BY SA 4.0,"Chiesa del Carmine, Porta San'Agata, Palermo",Palermo,38.109320,13.361391,https://www.flickr.com/photos/biblioteca-comunale-palermo/26635916489
26655930469,https://farm5.staticflickr.com/4551/26655930469_0c9e2d8e5b_o.jpg,Saluti da Palermo - Quattro Cantoni e via Macqueda,,"Di Benedetto, Enrico",Collezione del Fondo Di Benedetto,Biblioteca comunale di Palermo - Sezione manoscritti e rari,147,pp. 418. E. Di Benedetto: Palermo - varia XIX – XX secolo,,collezione,VI (147),CC BY SA 4.0,"via Macqueda, Quattro Canti, Quattro Cantoni, Piazza Vigliena, Palermo",Palermo,38.115726,13.361413,https://www.flickr.com/photos/biblioteca-comunale-palermo/26655930469
26656123879,https://farm5.staticflickr.com/4552/26656123879_b798faf2fd_o.jpg,Quattro Canti,,"Di Benedetto, Enrico",Collezione del Fondo Di Benedetto,Biblioteca comunale di Palermo - Sezione manoscritti e rari,149,pp. 418. E. Di Benedetto: Palermo - varia XIX – XX secolo,,collezione,VI (149),CC BY SA 4.0,"via Macqueda, via Maqueda, Quattro Canti, Quattro Cantoni, Piazza Vigliena, Palermo",Palermo,38.115726,13.361413,https://www.flickr.com/photos/biblioteca-comunale-palermo/26656123879
26656336329,https://farm5.staticflickr.com/4560/26656336329_d313a7f10f_o.jpg,Rircodo di Palermo - Quatrocantoni e Corso Vitt. Emanuele,,"Di Benedetto, Enrico",Collezione del Fondo Di Benedetto,Biblioteca comunale di Palermo - Sezione manoscritti e rari,151,pp. 418. E. Di Benedetto: Palermo - varia XIX – XX secolo,,collezione,VI (151),CC BY SA 4.0,"corso Vittorio Emanuele, Quattro Canti, Quattro Cantoni, Piazza Vigliena, Palermo",Palermo,38.115726,13.361413,https://www.flickr.com/photos/biblioteca-comunale-palermo/26656336329
26656928999,https://farm5.staticflickr.com/4535/26656928999_98986f7cbf_o.jpg,Palermo - Corso calatafimi,"Devaux, Paris","Di Benedetto, Enrico",Collezione del Fondo Di Benedetto,Biblioteca comunale di Palermo - Sezione manoscritti e rari,235,pp. 418. E. Di Benedetto: Palermo - varia XIX – XX secolo,,collezione,VI (235),CC BY SA 4.0,"Palermo, corso Calatafimi, piazza Indipendenza",Palermo,38.110214,13.347873,https://www.flickr.com/photos/biblioteca-comunale-palermo/26656928999
26658068789,https://farm5.staticflickr.com/4568/26658068789_01671a4bfc_o.jpg,Palermo - Quattro Cantoni con via Macqueda,,"Di Benedetto, Enrico",Collezione del Fondo Di Benedetto,Biblioteca comunale di Palermo - Sezione manoscritti e rari,155,pp. 418. E. Di Benedetto: Palermo - varia XIX – XX secolo,,collezione,VI (155),CC BY SA 4.0,"Quattro Canti, Quattro Cantoni, via Macqueda, via Maqueda, Piazza Vigliena, Palermo",Palermo,38.115726,13.361413,https://www.flickr.com/photos/biblioteca-comunale-palermo/26658068789
26761650709,https://farm5.staticflickr.com/4574/26761650709_4826c72894_o.jpg,Parte centrale della gran Fontana di piazza Pretoria,"Stengel &amp; Co., Dresda","Di Benedetto, Enrico",Collezione del Fondo Di Benedetto,Biblioteca comunale di Palermo - Sezione manoscritti e rari,167,pp. 418. E. Di Benedetto: Palermo - varia XIX – XX secolo,,collezione,VI (167),CC BY SA 4.0,"Piazza Pretoria, Piazza della Vergona, Palermo",Palermo,38.115415,13.362078,https://www.flickr.com/photos/biblioteca-comunale-palermo/26761650709
26761678939,https://farm5.staticflickr.com/4544/26761678939_b82c8a3111_o.jpg,La Gran Fontana in Piazza Pretoria,,"Di Benedetto, Enrico",Collezione del Fondo Di Benedetto,Biblioteca comunale di Palermo - Sezione manoscritti e rari,168,pp. 418. E. Di Benedetto: Palermo - varia XIX – XX secolo,,collezione,VI (168),CC BY SA 4.0,"Piazza Pretoria, Piazza della Vergona, Palermo",Palermo,38.115415,13.362078,https://www.flickr.com/photos/biblioteca-comunale-palermo/26761678939
26761940129,https://farm5.staticflickr.com/4539/26761940129_8bc07e27ee_o.jpg,Palermo - Piazza dell'Indipendeza,,"Di Benedetto, Enrico",Collezione del Fondo Di Benedetto,Biblioteca comunale di Palermo - Sezione manoscritti e rari,173,pp. 418. E. Di Benedetto: Palermo - varia XIX – XX secolo,,collezione,VI (173),CC BY SA 4.0,"Piazza Indipendenza, Palermo",Palermo,38.110790,13.350147,https://www.flickr.com/photos/biblioteca-comunale-palermo/26761940129
26780712359,https://farm5.staticflickr.com/4534/26780712359_fa6090cd25_o.jpg,Palermo - Piazza dell'Indipendenza,,"Di Benedetto, Enrico",Collezione del Fondo Di Benedetto,Biblioteca comunale di Palermo - Sezione manoscritti e rari,174,pp. 418. E. Di Benedetto: Palermo - varia XIX – XX secolo,,collezione,VI (174),CC BY SA 4.0,"Piazza Indipendenza, Palermo",Palermo,38.110418,13.350491,https://www.flickr.com/photos/biblioteca-comunale-palermo/26780712359
26802185339,https://farm5.staticflickr.com/4553/26802185339_3e92bdb72b_o.jpg,Palermo - Via della Libertà,Editore I. Sandron - Palermo,"Di Benedetto, Enrico",Collezione del Fondo Di Benedetto,Biblioteca comunale di Palermo - Sezione manoscritti e rari,261,pp. 418. E. Di Benedetto: Palermo - varia XIX – XX secolo,,collezione,VI (261),CC BY SA 4.0,"Palermo, via della Libertà,",Palermo,38.129982,13.352057,https://www.flickr.com/photos/biblioteca-comunale-palermo/26802185339
26818027619,https://farm5.staticflickr.com/4560/26818027619_68f8b5fa33_o.jpg,Piazza S.Domenico,"Gabrielli Giuseppe, Palermo","Di Benedetto, Enrico",Collezione del Fondo Di Benedetto,Biblioteca comunale di Palermo - Sezione manoscritti e rari,187,pp. 418. E. Di Benedetto: Palermo - varia XIX – XX secolo,,collezione,VI (187),CC BY SA 4.0,"Piazza S.Domenico, Palermo",Palermo,38.119264,13.362614,https://www.flickr.com/photos/biblioteca-comunale-palermo/26818027619
26818081559,https://farm5.staticflickr.com/4555/26818081559_f7193970b5_o.jpg,Piazza S.Domenico,"Gabrielli Giuseppe, Palermo","Di Benedetto, Enrico",Collezione del Fondo Di Benedetto,Biblioteca comunale di Palermo - Sezione manoscritti e rari,188,pp. 418. E. Di Benedetto: Palermo - varia XIX – XX secolo,,collezione,VI (188),CC BY SA 4.0,"Piazza S.Domenico, Palermo",Palermo,38.119264,13.362614,https://www.flickr.com/photos/biblioteca-comunale-palermo/26818081559
26819150019,https://farm5.staticflickr.com/4569/26819150019_71009aba43_o.jpg,Palermo - Via della Libertà,,"Di Benedetto, Enrico",Collezione del Fondo Di Benedetto,Biblioteca comunale di Palermo - Sezione manoscritti e rari,265,pp. 418. E. Di Benedetto: Palermo - varia XIX – XX secolo,,collezione,VI (265),CC BY SA 4.0,"Palermo, via della Libertà, via Liberta Politeama, piazza Castelnuovo",Palermo,38.124513,13.355770,https://www.flickr.com/photos/biblioteca-comunale-palermo/26819150019
26844418977,https://farm1.staticflickr.com/973/26844418977_ebe79d6eee_o.jpg,Palermo – La Zisa – Costruzione del secolo XII,G. genova Scarpinato,"Di Benedetto, Enrico",Collezione del Fondo Di Benedetto,Biblioteca comunale di Palermo - Sezione manoscritti e rari,19,pp. 401. E. Di Benedetto: Palermo - varia XIX – XX secolo,,collezione,VII (19),CC BY SA 4.0,"Castello della Zisa, Palermo",Palermo,38.117558,13.342080,https://www.flickr.com/photos/biblioteca-comunale-palermo/26844418977
26897772059,https://farm5.staticflickr.com/4542/26897772059_da7d963c57_o.jpg,Palermo - via della Libertà,,"Di Benedetto, Enrico",Collezione del Fondo Di Benedetto,Biblioteca comunale di Palermo - Sezione manoscritti e rari,268,pp. 418. E. Di Benedetto: Palermo - varia XIX – XX secolo,,collezione,VI (268),CC BY SA 4.0,"Palermo, via Libertà, via della Libertà, viale Liberta, viale della Libertà, Politeama, piazza Castelnuovo",Palermo,38.124581,13.355748,https://www.flickr.com/photos/biblioteca-comunale-palermo/26897772059
26897900399,https://farm5.staticflickr.com/4532/26897900399_25a2ac31f8_o.jpg,Palermo - via della Libertà,"G. Valdes, Palermo","Di Benedetto, Enrico",Collezione del Fondo Di Benedetto,Biblioteca comunale di Palermo - Sezione manoscritti e rari,270,pp. 418. E. Di Benedetto: Palermo - varia XIX – XX secolo,,collezione,VI (270),CC BY SA 4.0,"Palermo, via Libertà, via della Libertà, viale Liberta, viale della Libertà",Palermo,38.129982,13.352057,https://www.flickr.com/photos/biblioteca-comunale-palermo/26897900399
26898043649,https://farm5.staticflickr.com/4526/26898043649_c3d6f21342_o.jpg,Palermo - via Libertà,o. Walter,"Di Benedetto, Enrico",Collezione del Fondo Di Benedetto,Biblioteca comunale di Palermo - Sezione manoscritti e rari,272,pp. 418. E. Di Benedetto: Palermo - varia XIX – XX secolo,,collezione,VI (272),CC BY SA 4.0,"Palermo, via Libertà, via della Libertà, viale Liberta, viale della Libertà",Palermo,38.125374,13.355083,https://www.flickr.com/photos/biblioteca-comunale-palermo/26898043649
26898114109,https://farm5.staticflickr.com/4567/26898114109_1d41792dbe_o.jpg,Palermo - via della Libertà,,"Di Benedetto, Enrico",Collezione del Fondo Di Benedetto,Biblioteca comunale di Palermo - Sezione manoscritti e rari,273,pp. 418. E. Di Benedetto: Palermo - varia XIX – XX secolo,,collezione,VI (273),CC BY SA 4.0,"Palermo, via Libertà, via della Libertà, viale Liberta, viale della Libertà",Palermo,38.129982,13.352057,https://www.flickr.com/photos/biblioteca-comunale-palermo/26898114109
26898240629,https://farm5.staticflickr.com/4552/26898240629_7e3f1d1c96_o.jpg,Palermo - via della Libertà,,"Di Benedetto, Enrico",Collezione del Fondo Di Benedetto,Biblioteca comunale di Palermo - Sezione manoscritti e rari,275,pp. 418. E. Di Benedetto: Palermo - varia XIX – XX secolo,,collezione,VI (275),CC BY SA 4.0,"Palermo, via Libertà, via della Libertà, viale Liberta, viale della Libertà",Palermo,38.124581,13.355748,https://www.flickr.com/photos/biblioteca-comunale-palermo/26898240629
26899592519,https://farm5.staticflickr.com/4580/26899592519_d19dd72265_o.jpg,Giardino Garibaldi e Piazza Marina,"Dr. Trenkler Co, Lipsia","Di Benedetto, Enrico",Collezione del Fondo Di Benedetto,Biblioteca comunale di Palermo - Sezione manoscritti e rari,204,pp. 418. E. Di Benedetto: Palermo - varia XIX – XX secolo,,collezione,VI (204),CC BY SA 4.0,"Piazza Marina, Giardino Garibaldi, Palermo",Palermo,38.117965,13.368000,https://www.flickr.com/photos/biblioteca-comunale-palermo/26899592519
26900376129,https://farm5.staticflickr.com/4585/26900376129_6aca9f0b96_o.jpg,Palermo - Piazza Giuseppe Verdi,,"Di Benedetto, Enrico",Collezione del Fondo Di Benedetto,Biblioteca comunale di Palermo - Sezione manoscritti e rari,211,pp. 418. E. Di Benedetto: Palermo - varia XIX – XX secolo,,collezione,VI (211),CC BY SA 4.0,"Piazza Giuseppe Verdi, Palermo",Palermo,38.120217,13.358420,https://www.flickr.com/photos/biblioteca-comunale-palermo/26900376129
26900496389,https://farm5.staticflickr.com/4529/26900496389_e7777dbded_o.jpg,Palermo - Piazza della Kalsa,,"Di Benedetto, Enrico",Collezione del Fondo Di Benedetto,Biblioteca comunale di Palermo - Sezione manoscritti e rari,212,pp. 418. E. Di Benedetto: Palermo - varia XIX – XX secolo,,collezione,VI (212),CC BY SA 4.0,"Piazza Kalsa, Palermo",Palermo,38.115541,13.374030,https://www.flickr.com/photos/biblioteca-comunale-palermo/26900496389
26900605189,https://farm5.staticflickr.com/4575/26900605189_0ddc904e6f_o.jpg,Palermo - Piazza Gius. Verdi,"Devaux, Paris","Di Benedetto, Enrico",Collezione del Fondo Di Benedetto,Biblioteca comunale di Palermo - Sezione manoscritti e rari,213,pp. 418. E. Di Benedetto: Palermo - varia XIX – XX secolo,,collezione,VI (213),CC BY SA 4.0,"Piazza Verdi, Palermo",Palermo,38.120445,13.358130,https://www.flickr.com/photos/biblioteca-comunale-palermo/26900605189
26920747949,https://farm5.staticflickr.com/4550/26920747949_bc75ef965f_o.jpg,Palermo - via Americo Amari e Politeama,,"Di Benedetto, Enrico",Collezione del Fondo Di Benedetto,Biblioteca comunale di Palermo - Sezione manoscritti e rari,279,pp. 418. E. Di Benedetto: Palermo - varia XIX – XX secolo,,collezione,VI (279),CC BY SA 4.0,"Palermo, via Americo Amari, via Emerico Amari, Politeama",Palermo,38.124429,13.355877,https://www.flickr.com/photos/biblioteca-comunale-palermo/26920747949
26921398509,https://farm5.staticflickr.com/4525/26921398509_3ff44a265c_o.jpg,Palermo - via Roma,,"Di Benedetto, Enrico",Collezione del Fondo Di Benedetto,Biblioteca comunale di Palermo - Sezione manoscritti e rari,285,pp. 418. E. Di Benedetto: Palermo - varia XIX – XX secolo,,collezione,VI (285),CC BY SA 4.0,"Palermo, via Roma",Palermo,38.117145,13.363333,https://www.flickr.com/photos/biblioteca-comunale-palermo/26921398509
26922296389,https://farm5.staticflickr.com/4547/26922296389_f99da31d23_o.jpg,Palermo Nuova - Piazza Castelnuovo e Via Dante,,"Di Benedetto, Enrico",Collezione del Fondo Di Benedetto,Biblioteca comunale di Palermo - Sezione manoscritti e rari,223,pp. 418. E. Di Benedetto: Palermo - varia XIX – XX secolo,,collezione,VI (223),CC BY SA 4.0,"Piazza Castelnuovo, Via Dante,Palermo",Palermo,38.124733,13.354547,https://www.flickr.com/photos/biblioteca-comunale-palermo/26922296389
26922488609,https://farm5.staticflickr.com/4534/26922488609_597e6e2b9d_o.jpg,Piazza Ruggero Settimo,,"Di Benedetto, Enrico",Collezione del Fondo Di Benedetto,Biblioteca comunale di Palermo - Sezione manoscritti e rari,225,pp. 418. E. Di Benedetto: Palermo - varia XIX – XX secolo,,collezione,VI (225),CC BY SA 4.0,"Piazza Ruggero Settimo,Palermo",Palermo,38.124446,13.355298,https://www.flickr.com/photos/biblioteca-comunale-palermo/26922488609
26929657857,https://farm1.staticflickr.com/951/26929657857_06c5a5d779_o.jpg,Palermo - Palazzo Reale – Stanza di Ruggero,"Devaux, Paris","Di Benedetto, Enrico",Collezione del Fondo Di Benedetto,Biblioteca comunale di Palermo - Sezione manoscritti e rari,34,pp. 401. E. Di Benedetto: Palermo - varia XIX – XX secolo,,collezione,VII (34),CC BY SA 4.0,"Palazzo Reale, Palazzo dei Normanni, Palermo",Palermo,38.111531,13.353452,https://www.flickr.com/photos/biblioteca-comunale-palermo/26929657857
26931206057,https://farm1.staticflickr.com/827/26931206057_5cdf7d08a4_o.jpg,Palermo - Cappella Palatina,Carlo Golia &amp; C°. Editeurs - Palermo,"Di Benedetto, Enrico",Collezione del Fondo Di Benedetto,Biblioteca comunale di Palermo - Sezione manoscritti e rari,40,pp. 401. E. Di Benedetto: Palermo - varia XIX – XX secolo,,collezione,VII (40),CC BY SA 4.0,"Palazzo Reale, Palazzo dei Normanni, Cappella Palatina, Palermo",Palermo,38.111531,13.353452,https://www.flickr.com/photos/biblioteca-comunale-palermo/26931206057
26940934399,https://farm5.staticflickr.com/4533/26940934399_97c909aaec_o.jpg,Piazza Castelnuovo,"G. Valdes, Palermo","Di Benedetto, Enrico",Collezione del Fondo Di Benedetto,Biblioteca comunale di Palermo - Sezione manoscritti e rari,227,pp. 418. E. Di Benedetto: Palermo - varia XIX – XX secolo,,collezione,VI (227),CC BY SA 4.0,"Piazza Castelnuovo,Palermo",Palermo,38.124986,13.356027,https://www.flickr.com/photos/biblioteca-comunale-palermo/26940934399
26941394589,https://farm5.staticflickr.com/4550/26941394589_8f5eee58a7_o.jpg,Inaugurazione del monumento a F. Crispi,,"Di Benedetto, Enrico",Collezione del Fondo Di Benedetto,Biblioteca comunale di Palermo - Sezione manoscritti e rari,230,pp. 418. E. Di Benedetto: Palermo - varia XIX – XX secolo,,collezione,VI (230),CC BY SA 4.0,"Piazza Francesco Crispi, Palermo",Palermo,38.130218,13.352218,https://www.flickr.com/photos/biblioteca-comunale-palermo/26941394589
26941474559,https://farm5.staticflickr.com/4523/26941474559_54ef4273b0_o.jpg,Palermo – Carcere Giudiziario,"Devaux, Paris","Di Benedetto, Enrico",Collezione del Fondo Di Benedetto,Biblioteca comunale di Palermo - Sezione manoscritti e rari,231,pp. 418. E. Di Benedetto: Palermo - varia XIX – XX secolo,,collezione,VI (231),CC BY SA 4.0,"Carcere Ucciardone, Palermo",Palermo,38.132750,13.359503,https://www.flickr.com/photos/biblioteca-comunale-palermo/26941474559
26941553359,https://farm5.staticflickr.com/4551/26941553359_bc90cfc35a_o.jpg,Palermo – Piazza Francesco Crispi,,"Di Benedetto, Enrico",Collezione del Fondo Di Benedetto,Biblioteca comunale di Palermo - Sezione manoscritti e rari,232,pp. 418. E. Di Benedetto: Palermo - varia XIX – XX secolo,,collezione,VI (232),CC BY SA 4.0,"Piazza Francesco Crispi, Palermo",Palermo,38.130218,13.352218,https://www.flickr.com/photos/biblioteca-comunale-palermo/26941553359
26942704379,https://farm5.staticflickr.com/4555/26942704379_7d0d686e1f_o.jpg,Palermo – Ponte dell'Ammiraglio,,"Di Benedetto, Enrico",Collezione del Fondo Di Benedetto,Biblioteca comunale di Palermo - Sezione manoscritti e rari,312,pp. 418. E. Di Benedetto: Palermo - varia XIX – XX secolo,,collezione,VI (312),CC BY SA 4.0,"Ponte dell'Ammiraglio, Palermo",Palermo,38.106263,13.373461,https://www.flickr.com/photos/biblioteca-comunale-palermo/26942704379
26942896689,https://farm5.staticflickr.com/4528/26942896689_e7e04a476f_o.jpg,Palermo - Ponte di mare,"Devaux, Paris","Di Benedetto, Enrico",Collezione del Fondo Di Benedetto,Biblioteca comunale di Palermo - Sezione manoscritti e rari,315,pp. 418. E. Di Benedetto: Palermo - varia XIX – XX secolo,,collezione,VI (315),CC BY SA 4.0,"Ponte di mare, Palermo",Palermo,38.109868,13.379309,https://www.flickr.com/photos/biblioteca-comunale-palermo/26942896689
26942909419,https://farm5.staticflickr.com/4552/26942909419_c9b0c8d54c_o.jpg,Palermo - via Roma,,"Di Benedetto, Enrico",Collezione del Fondo Di Benedetto,Biblioteca comunale di Palermo - Sezione manoscritti e rari,293,pp. 418. E. Di Benedetto: Palermo - varia XIX – XX secolo,,collezione,VI (293),CC BY SA 4.0,"Palermo, via Roma, piazza S. Domenico",Palermo,38.119373,13.362153,https://www.flickr.com/photos/biblioteca-comunale-palermo/26942909419
26943433379,https://farm5.staticflickr.com/4553/26943433379_fa7dd23713_o.jpg,Palermo Nuova - Via Francesco Crispi,300,"Di Benedetto, Enrico",Collezione del Fondo Di Benedetto,Biblioteca comunale di Palermo - Sezione manoscritti e rari,299,pp. 418. E. Di Benedetto: Palermo - varia XIX – XX secolo,,collezione,VI (300),CC BY SA 4.0,"Palermo, Via Francesco Crispi",Palermo,38.120631,13.366413,https://www.flickr.com/photos/biblioteca-comunale-palermo/26943433379
26944024619,https://farm5.staticflickr.com/4554/26944024619_24170de5cd_o.jpg,Sant'Erasmo,,"Di Benedetto, Enrico",Collezione del Fondo Di Benedetto,Biblioteca comunale di Palermo - Sezione manoscritti e rari,324,pp. 418. E. Di Benedetto: Palermo - varia XIX – XX secolo,,collezione,VI (324),CC BY SA 4.0,"Porticciolo di Sant'Erasmo, Palermo",Palermo,38.112949,13.377785,https://www.flickr.com/photos/biblioteca-comunale-palermo/26944024619
27048433499,https://farm5.staticflickr.com/4572/27048433499_ba502bc7a9_o.jpg,Palermo - Sant'Erasmo - Arrivo del tonno - I.,,"Di Benedetto, Enrico",Collezione del Fondo Di Benedetto,Biblioteca comunale di Palermo - Sezione manoscritti e rari,325,pp. 418. E. Di Benedetto: Palermo - varia XIX – XX secolo,,collezione,VI (325),CC BY SA 4.0,"Porticciolo di Sant'Erasmo, Palermo",Palermo,38.112848,13.378472,https://www.flickr.com/photos/biblioteca-comunale-palermo/27048433499
27072132419,https://farm5.staticflickr.com/4538/27072132419_a32e2a3780_o.jpg,Foro Italico,"Devaux, Paris","Di Benedetto, Enrico",Collezione del Fondo Di Benedetto,Biblioteca comunale di Palermo - Sezione manoscritti e rari,346,pp. 418. E. Di Benedetto: Palermo - varia XIX – XX secolo,,collezione,VI (346),CC BY SA 4.0,"Foro Umberto I, Palermo",Palermo,38.112704,13.378536,https://www.flickr.com/photos/biblioteca-comunale-palermo/27072132419
27373678649,https://farm5.staticflickr.com/4689/27373678649_891bc5104f_o.jpg,Palermo - Foro Umberto I e Monte Pellegrino,,"Di Benedetto, Enrico",Collezione del Fondo Di Benedetto,Biblioteca comunale di Palermo - Sezione manoscritti e rari,349,pp. 418. E. Di Benedetto: Palermo - varia XIX – XX secolo,,collezione,VI (349),CC BY SA 4.0,"Foro Umberto I, Palermo",Palermo,38.116739,13.373848,https://www.flickr.com/photos/biblioteca-comunale-palermo/27373678649
27373727679,https://farm5.staticflickr.com/4597/27373727679_0439760cfa_o.jpg,Foro Italico e Monte Pellegrino,"Luigi Brangi, Cartoleria della Stella, Palermo","Di Benedetto, Enrico",Collezione del Fondo Di Benedetto,Biblioteca comunale di Palermo - Sezione manoscritti e rari,350,pp. 418. E. Di Benedetto: Palermo - varia XIX – XX secolo,,collezione,VI (350),CC BY SA 4.0,"Foro Umberto I, Palermo",Palermo,38.116900,13.373558,https://www.flickr.com/photos/biblioteca-comunale-palermo/27373727679
27373858629,https://farm5.staticflickr.com/4592/27373858629_36b00835f6_o.jpg,Palermo - Foro Umberto I e Chalet a mare,,"Di Benedetto, Enrico",Collezione del Fondo Di Benedetto,Biblioteca comunale di Palermo - Sezione manoscritti e rari,351,pp. 418. E. Di Benedetto: Palermo - varia XIX – XX secolo,,collezione,VI (351),CC BY SA 4.0,"Foro Umberto I, Palermo",Palermo,38.117221,13.373386,https://www.flickr.com/photos/biblioteca-comunale-palermo/27373858629
27464945908,https://farm1.staticflickr.com/898/27464945908_d5bd3540aa_o.jpg,palermo - La Zisa (XII secolo),"L. Sandron, Palermo","Di Benedetto, Enrico",Collezione del Fondo Di Benedetto,Biblioteca comunale di Palermo - Sezione manoscritti e rari,5,pp. 401. E. Di Benedetto: Palermo - varia XIX – XX secolo,,collezione,VII (5),CC BY SA 4.0,"Castello della Zisa, Palermo",Palermo,38.116812,13.343024,https://www.flickr.com/photos/biblioteca-comunale-palermo/27464945908
27555316027,https://farm2.staticflickr.com/1758/27555316027_d625e9c93a_o.jpg,Palermo - Cappella Palatina - Prospetto,,"Di Benedetto, Enrico",Collezione del Fondo Di Benedetto,Biblioteca comunale di Palermo - Sezione manoscritti e rari,44,pp. 401. E. Di Benedetto: Palermo - varia XIX – XX secolo,,collezione,VII (44),CC BY SA 4.0,"Palazzo Reale, Palazzo dei Normanni, Palermo",Palermo,38.110552,13.350577,https://www.flickr.com/photos/biblioteca-comunale-palermo/27555316027
27555457627,https://farm2.staticflickr.com/1739/27555457627_89da64d927_o.jpg,Palermo – Cappella Palatina - Mosaici,,"Di Benedetto, Enrico",Collezione del Fondo Di Benedetto,Biblioteca comunale di Palermo - Sezione manoscritti e rari,84,pp. 401. E. Di Benedetto: Palermo - varia XIX – XX secolo,,collezione,VII (84),CC BY SA 4.0,"Palazzo Reale, Palazzo dei Normanni, Palermo",Palermo,38.110670,13.350512,https://www.flickr.com/photos/biblioteca-comunale-palermo/27555457627
27555458047,https://farm1.staticflickr.com/881/27555458047_6c5c7d53eb_o.jpg,Palermo – Cappella Palatina - Mosaici,,"Di Benedetto, Enrico",Collezione del Fondo Di Benedetto,Biblioteca comunale di Palermo - Sezione manoscritti e rari,82,pp. 401. E. Di Benedetto: Palermo - varia XIX – XX secolo,,collezione,VII (82),CC BY SA 4.0,"Palazzo Reale, Palazzo dei Normanni, Palermo",Palermo,38.110670,13.350534,https://www.flickr.com/photos/biblioteca-comunale-palermo/27555458047
27843394758,https://farm1.staticflickr.com/956/27843394758_9a0cd4f107_o.jpg,Pal. della Zisa,,"Di Benedetto, Enrico",Collezione del Fondo Di Benedetto,Biblioteca comunale di Palermo - Sezione manoscritti e rari,18,pp. 401. E. Di Benedetto: Palermo - varia XIX – XX secolo,,collezione,VII (18),CC BY SA 4.0,"Castello della Zisa, Palermo",Palermo,38.116950,13.341608,https://www.flickr.com/photos/biblioteca-comunale-palermo/27843394758
27920564157,https://farm2.staticflickr.com/1747/27920564157_062111f791_o.jpg,Palermo – Palazzo Sclafani - oggi distretto militare,,"Di Benedetto, Enrico",Collezione del Fondo Di Benedetto,Biblioteca comunale di Palermo - Sezione manoscritti e rari,105,pp. 401. E. Di Benedetto: Palermo - varia XIX – XX secolo,,collezione,VII (105),CC BY SA 4.0,"Palazzo Sclafani, Palermo",Palermo,38.110729,13.349643,https://www.flickr.com/photos/biblioteca-comunale-palermo/27920564157
27928967058,https://farm1.staticflickr.com/951/27928967058_a2427e2b66_o.jpg,Palermo - Palazzo Reale e Statua di Carlo III,,"Di Benedetto, Enrico",Collezione del Fondo Di Benedetto,Biblioteca comunale di Palermo - Sezione manoscritti e rari,27,pp. 401. E. Di Benedetto: Palermo - varia XIX – XX secolo,,collezione,VII (27),CC BY SA 4.0,"Palazzo Reale, Palazzo dei Normanni, Palermo",Palermo,38.111531,13.353452,https://www.flickr.com/photos/biblioteca-comunale-palermo/27928967058
27929127388,https://farm1.staticflickr.com/955/27929127388_c9a42dfcff_o.jpg,Palermo - Il Palazzo Reale,"Dr. Trenkler Co., Lipsia","Di Benedetto, Enrico",Collezione del Fondo Di Benedetto,Biblioteca comunale di Palermo - Sezione manoscritti e rari,30,pp. 401. E. Di Benedetto: Palermo - varia XIX – XX secolo,,collezione,VII (30),CC BY SA 4.0,"Palazzo Reale, Palazzo dei Normanni, Palermo",Palermo,38.111531,13.353452,https://www.flickr.com/photos/biblioteca-comunale-palermo/27929127388
27930898458,https://farm1.staticflickr.com/828/27930898458_e136c00ffd_o.jpg,Palazzo Reale. Veduta della Loggia con Cappella Palatina,Foto ALinari - Dr. Trenler Co.,"Di Benedetto, Enrico",Collezione del Fondo Di Benedetto,Biblioteca comunale di Palermo - Sezione manoscritti e rari,38,pp. 401. E. Di Benedetto: Palermo - varia XIX – XX secolo,,collezione,VII (38),CC BY SA 4.0,"Palazzo Reale, Palazzo dei Normanni, Palermo",Palermo,38.111531,13.353452,https://www.flickr.com/photos/biblioteca-comunale-palermo/27930898458
28341829257,https://farm2.staticflickr.com/1808/28341829257_8b730746ef_o.jpg,Palermo - La Villa Belmonte col Monte Pellegrino,"E. Bergami, Napoli","Di Benedetto, Enrico",Collezione del Fondo Di Benedetto,Biblioteca comunale di Palermo - Sezione manoscritti e rari,118,pp. 401. E. Di Benedetto: Palermo - varia XIX – XX secolo,,collezione,VII (118),CC BY SA 4.0,"Villa Belmonte, Monte Pellegrino, Palermo",Palermo,38.145796,13.369696,https://www.flickr.com/photos/biblioteca-comunale-palermo/28341829257
28425917257,https://farm2.staticflickr.com/1808/28425917257_9fb87cb16b_o.jpg,Palermo – Villino Tagliavia (Arch. Ernesto Armò),,"Di Benedetto, Enrico",Collezione del Fondo Di Benedetto,Biblioteca comunale di Palermo - Sezione manoscritti e rari,129,pp. 401. E. Di Benedetto: Palermo - varia XIX – XX secolo,,collezione,VII (129),CC BY SA 4.0,"Villino Tagliavia, Viale della Libertà, Palermo",Palermo,38.136477,13.348217,https://www.flickr.com/photos/biblioteca-comunale-palermo/28425917257
28445284127,https://farm2.staticflickr.com/1821/28445284127_8bbb1eb208_o.jpg,Palermo – Villino Nicoletti (Viale della Libertà) (Arch. Ernesto Armò),"G. Valdes, Palermo","Di Benedetto, Enrico",Collezione del Fondo Di Benedetto,Biblioteca comunale di Palermo - Sezione manoscritti e rari,128,pp. 401. E. Di Benedetto: Palermo - varia XIX – XX secolo,,collezione,VII (128),CC BY SA 4.0,"Villino Nicoletti, Via Messina, Viale della Libertà, Palermo",Palermo,38.127214,13.353710,https://www.flickr.com/photos/biblioteca-comunale-palermo/28445284127
28445602487,https://farm2.staticflickr.com/1803/28445602487_df051abed7_o.jpg,Palermo – Villino Tagliavia (Arch. Ernesto Armò),"G. Valdes, Palermo","Di Benedetto, Enrico",Collezione del Fondo Di Benedetto,Biblioteca comunale di Palermo - Sezione manoscritti e rari,131,pp. 401. E. Di Benedetto: Palermo - varia XIX – XX secolo,,collezione,VII (131),CC BY SA 4.0,"Villino Tagliavia, Viale della Libertà, Palermo",Palermo,38.136514,13.348270,https://www.flickr.com/photos/biblioteca-comunale-palermo/28445602487
28468059357,https://farm2.staticflickr.com/1807/28468059357_bf0f12808f_o.jpg,Palermo - Villa d'Orleans,,"Di Benedetto, Enrico",Collezione del Fondo Di Benedetto,Biblioteca comunale di Palermo - Sezione manoscritti e rari,143,pp. 401. E. Di Benedetto: Palermo - varia XIX – XX secolo,,collezione,VII (143),CC BY SA 4.0,"parco d'Orleans, Villa d'Orleans, Palermo",Palermo,38.109556,13.352637,https://www.flickr.com/photos/biblioteca-comunale-palermo/28468059357
28489150977,https://farm2.staticflickr.com/1825/28489150977_7db5156fb5_o.jpg,Palermo - Villa d'Orleans,,"Di Benedetto, Enrico",Collezione del Fondo Di Benedetto,Biblioteca comunale di Palermo - Sezione manoscritti e rari,145,pp. 401. E. Di Benedetto: Palermo - varia XIX – XX secolo,,collezione,VII (145),CC BY SA 4.0,"Palazzo d'Orleans, Villa d'Orleans, Palermo",Palermo,38.109573,13.352894,https://www.flickr.com/photos/biblioteca-comunale-palermo/28489150977
28552059598,https://farm2.staticflickr.com/1758/28552059598_ebd65293d3_o.jpg,Palermo -Palazzo Reale – Cappella Palatina di stile gotico normanno,,"Di Benedetto, Enrico",Collezione del Fondo Di Benedetto,Biblioteca comunale di Palermo - Sezione manoscritti e rari,41,pp. 401. E. Di Benedetto: Palermo - varia XIX – XX secolo,,collezione,VII (41),CC BY SA 4.0,"Palazzo Reale, Palazzo dei Normanni, Palermo",Palermo,38.111244,13.352487,https://www.flickr.com/photos/biblioteca-comunale-palermo/28552059598
28552293788,https://farm1.staticflickr.com/877/28552293788_5d53e89b3e_o.jpg,Palermo – Cappella Palatina - Mosaici,,"Di Benedetto, Enrico",Collezione del Fondo Di Benedetto,Biblioteca comunale di Palermo - Sezione manoscritti e rari,90,pp. 401. E. Di Benedetto: Palermo - varia XIX – XX secolo,,collezione,VII (90),CC BY SA 4.0,"Palazzo Reale, Palazzo dei Normanni, Palermo",Palermo,38.110636,13.350534,https://www.flickr.com/photos/biblioteca-comunale-palermo/28552293788
28552294198,https://farm2.staticflickr.com/1732/28552294198_fd4cbf696b_o.jpg,Palermo – Cappella Palatina - Mosaici,,"Di Benedetto, Enrico",Collezione del Fondo Di Benedetto,Biblioteca comunale di Palermo - Sezione manoscritti e rari,88,pp. 401. E. Di Benedetto: Palermo - varia XIX – XX secolo,,collezione,VII (88),CC BY SA 4.0,"Palazzo Reale, Palazzo dei Normanni, Palermo",Palermo,38.110653,13.350555,https://www.flickr.com/photos/biblioteca-comunale-palermo/28552294198
28596782638,https://farm2.staticflickr.com/1737/28596782638_6f95cf280b_o.jpg,Palermo – Pal. Della Cupa,,"Di Benedetto, Enrico",Collezione del Fondo Di Benedetto,Biblioteca comunale di Palermo - Sezione manoscritti e rari,92,pp. 401. E. Di Benedetto: Palermo - varia XIX – XX secolo,,collezione,VII (92),CC BY SA 4.0,"La Cubola, Palermo",Palermo,38.106601,13.336758,https://www.flickr.com/photos/biblioteca-comunale-palermo/28596782638
28597549138,https://farm1.staticflickr.com/893/28597549138_37b6ba892a_o.jpg,"Palermo – La Cuba, edificio costruito nel 1180","L. Sandron, Palermo","Di Benedetto, Enrico",Collezione del Fondo Di Benedetto,Biblioteca comunale di Palermo - Sezione manoscritti e rari,95,pp. 401. E. Di Benedetto: Palermo - varia XIX – XX secolo,,collezione,VII (95),CC BY SA 4.0,"La Cuba, Palermo",Palermo,38.107715,13.342573,https://www.flickr.com/photos/biblioteca-comunale-palermo/28597549138
28696735947,https://farm2.staticflickr.com/1801/28696735947_4bf2e2ebf0_o.jpg,Palermo – Villino Caruso (via Lolli) – Arch. Filippo La Porta,,"Di Benedetto, Enrico",Collezione del Fondo Di Benedetto,Biblioteca comunale di Palermo - Sezione manoscritti e rari,166,pp. 401. E. Di Benedetto: Palermo - varia XIX – XX secolo,,collezione,VII (166),CC BY SA 4.0,"Villino Caruso, via Lolli, Palermo",Palermo,38.122328,13.343431,https://www.flickr.com/photos/biblioteca-comunale-palermo/28696735947
28761965638,https://farm2.staticflickr.com/1758/28761965638_e3d29590b8_o.jpg,Palermo – Palazzo della Cuba (stile arabo),"Dr. Trenkler Co., Lipsia","Di Benedetto, Enrico",Collezione del Fondo Di Benedetto,Biblioteca comunale di Palermo - Sezione manoscritti e rari,97,pp. 401. E. Di Benedetto: Palermo - varia XIX – XX secolo,,collezione,VII (97),CC BY SA 4.0,"La Cuba, Palermo",Palermo,38.107639,13.342498,https://www.flickr.com/photos/biblioteca-comunale-palermo/28761965638
28841586797,https://farm1.staticflickr.com/857/28841586797_4c017011d9_o.jpg,Villino Caltanissetta - Paternò,,"Di Benedetto, Enrico",Collezione del Fondo Di Benedetto,Biblioteca comunale di Palermo - Sezione manoscritti e rari,175,pp. 401. E. Di Benedetto: Palermo - varia XIX – XX secolo,,collezione,VII (175),CC BY SA 4.0,"Via Francesco Crispi al Borgo, Villino Caltanissetta - Paternò, Palermo",Palermo,38.126185,13.362765,https://www.flickr.com/photos/biblioteca-comunale-palermo/28841586797
28841835977,https://farm2.staticflickr.com/1811/28841835977_a688893573_o.jpg,Villa Florio – Dettaglio,"Dr. Trenkler Co., Lipsia","Di Benedetto, Enrico",Collezione del Fondo Di Benedetto,Biblioteca comunale di Palermo - Sezione manoscritti e rari,179,pp. 401. E. Di Benedetto: Palermo - varia XIX – XX secolo,,collezione,VII (179),CC BY SA 4.0,"Villino Florio, Palermo",Palermo,38.119686,13.343624,https://www.flickr.com/photos/biblioteca-comunale-palermo/28841835977
28863179157,https://farm1.staticflickr.com/854/28863179157_a9c4f631e0_o.jpg,Palermo – Collezione Chiaramonte Bordonaro – La Madonna col Divin Figlio (A. van Dyck),"G. Pedone Lauriel, Palermo","Di Benedetto, Enrico",Collezione del Fondo Di Benedetto,Biblioteca comunale di Palermo - Sezione manoscritti e rari,197,pp. 401. E. Di Benedetto: Palermo - varia XIX – XX secolo,,collezione,VII (197),CC BY SA 4.0,"Villa Bordonaro, Palermo",Palermo,38.131079,13.352851,https://www.flickr.com/photos/biblioteca-comunale-palermo/28863179157
28962715237,https://farm2.staticflickr.com/1771/28962715237_860bf84ff4_o.jpg,Palermo – Teatro Massimo (dettaglio),,"Di Benedetto, Enrico",Collezione del Fondo Di Benedetto,Biblioteca comunale di Palermo - Sezione manoscritti e rari,254,pp. 401. E. Di Benedetto: Palermo - varia XIX – XX secolo,,collezione,VII (254),CC BY SA 4.0,"Teatro Massimo, piazza Verdi, Palermo",Palermo,38.120344,13.357186,https://www.flickr.com/photos/biblioteca-comunale-palermo/28962715237
28962743247,https://farm2.staticflickr.com/1814/28962743247_6b6caffc50_o.jpg,Palermo – Teatro Massimo dell'architetto G.B.F. Basile,"Amilcare Guarneri, Milano","Di Benedetto, Enrico",Collezione del Fondo Di Benedetto,Biblioteca comunale di Palermo - Sezione manoscritti e rari,257,pp. 401. E. Di Benedetto: Palermo - varia XIX – XX secolo,,collezione,VII (257),CC BY SA 4.0,"Teatro Massimo, piazza Verdi, Palermo",Palermo,38.120411,13.357143,https://www.flickr.com/photos/biblioteca-comunale-palermo/28962743247
29005021297,https://farm1.staticflickr.com/934/29005021297_06f6bddcf2_o.jpg,Palermo – Villa Tasca,,"Di Benedetto, Enrico",Collezione del Fondo Di Benedetto,Biblioteca comunale di Palermo - Sezione manoscritti e rari,251,pp. 401. E. Di Benedetto: Palermo - varia XIX – XX secolo,,collezione,VII (251),CC BY SA 4.0,"Villa Tasca, Palermo",Palermo,38.102312,13.328819,https://www.flickr.com/photos/biblioteca-comunale-palermo/29005021297
29005021877,https://farm1.staticflickr.com/854/29005021877_4b4ce73957_o.jpg,Saluti Palermo – Villa Tasca,,"Di Benedetto, Enrico",Collezione del Fondo Di Benedetto,Biblioteca comunale di Palermo - Sezione manoscritti e rari,249,pp. 401. E. Di Benedetto: Palermo - varia XIX – XX secolo,,collezione,VII (249),CC BY SA 4.0,"Villa Tasca, Palermo",Palermo,38.102279,13.328948,https://www.flickr.com/photos/biblioteca-comunale-palermo/29005021877
29143388618,https://farm2.staticflickr.com/1783/29143388618_842a309dc1_o.jpg,Palermo - Palazzo Baucina con Porta dei Greci e Chiesa di S. Teresa,,"Di Benedetto, Enrico",Collezione del Fondo Di Benedetto,Biblioteca comunale di Palermo - Sezione manoscritti e rari,116,pp. 401. E. Di Benedetto: Palermo - varia XIX – XX secolo,,collezione,VII (116),CC BY SA 4.0,"Palazzo Baucina, Porta dei Greci, Chiesa di S. Teresa alla Kalsa, Palermo",Palermo,38.115921,13.374835,https://www.flickr.com/photos/biblioteca-comunale-palermo/29143388618
29424823818,https://farm2.staticflickr.com/1764/29424823818_30a2da8ac2_o.jpg,Palermo – Villini Rutelli e Nicoletti (Arch. Ernesto Armò),"G. Valdes, Palermo","Di Benedetto, Enrico",Collezione del Fondo Di Benedetto,Biblioteca comunale di Palermo - Sezione manoscritti e rari,132,pp. 401. E. Di Benedetto: Palermo - varia XIX – XX secolo,,collezione,VII (132),CC BY SA 4.0,"Villino Nicoletti, Villino Rutelli, via Messina, Viale della Libertà, Palermo",Palermo,38.127054,13.353635,https://www.flickr.com/photos/biblioteca-comunale-palermo/29424823818
29488165228,https://farm1.staticflickr.com/838/29488165228_fc4d260194_o.jpg,Palermo - Villa Sofia,,"Di Benedetto, Enrico",Collezione del Fondo Di Benedetto,Biblioteca comunale di Palermo - Sezione manoscritti e rari,149,pp. 401. E. Di Benedetto: Palermo - varia XIX – XX secolo,,collezione,VII (149),CC BY SA 4.0,"Villa Sofia, Palermo",Palermo,38.154883,13.336640,https://www.flickr.com/photos/biblioteca-comunale-palermo/29488165228
29488207588,https://farm2.staticflickr.com/1809/29488207588_2fcf9489e2_o.jpg,Palermo - Villa Sofia,,"Di Benedetto, Enrico",Collezione del Fondo Di Benedetto,Biblioteca comunale di Palermo - Sezione manoscritti e rari,150,pp. 401. E. Di Benedetto: Palermo - varia XIX – XX secolo,,collezione,VII (150),CC BY SA 4.0,"Villa Sofia, Palermo",Palermo,38.155228,13.336243,https://www.flickr.com/photos/biblioteca-comunale-palermo/29488207588
29488266108,https://farm2.staticflickr.com/1822/29488266108_fd417ce9f1_o.jpg,Palermo - Palazzo Butera,"G. Valdes, Palermo","Di Benedetto, Enrico",Collezione del Fondo Di Benedetto,Biblioteca comunale di Palermo - Sezione manoscritti e rari,152,pp. 401. E. Di Benedetto: Palermo - varia XIX – XX secolo,,collezione,VII (152),CC BY SA 4.0,"Palazzo Butera, Palermo",Palermo,38.119128,13.371520,https://www.flickr.com/photos/biblioteca-comunale-palermo/29488266108
29488614688,https://farm2.staticflickr.com/1828/29488614688_9d59c7a6c9_o.jpg,Palermo – Villa Pietratagliata,"G. Valdes, Palermo","Di Benedetto, Enrico",Collezione del Fondo Di Benedetto,Biblioteca comunale di Palermo - Sezione manoscritti e rari,158,pp. 401. E. Di Benedetto: Palermo - varia XIX – XX secolo,,collezione,VII (158),CC BY SA 4.0,"Villa Pietratagliata, via Malaspina, Palermo",Palermo,38.126277,13.338754,https://www.flickr.com/photos/biblioteca-comunale-palermo/29488614688
30007765498,https://farm1.staticflickr.com/858/30007765498_b12f9f5030_o.jpg,Palermo – Piazza Marchese Regalmici,"G. Pedone Lauriel, Palermo","Di Benedetto, Enrico",Collezione del Fondo Di Benedetto,Biblioteca comunale di Palermo - Sezione manoscritti e rari,220,pp. 401. E. Di Benedetto: Palermo - varia XIX – XX secolo,,collezione,VII (220),CC BY SA 4.0,"Piazza Regalmici, Palermo",Palermo,38.122733,13.356896,https://www.flickr.com/photos/biblioteca-comunale-palermo/30007765498
30072988228,https://farm1.staticflickr.com/936/30072988228_81dff1a1c4_o.jpg,Palermo – Palazzo Villarosa,,"Di Benedetto, Enrico",Collezione del Fondo Di Benedetto,Biblioteca comunale di Palermo - Sezione manoscritti e rari,225,pp. 401. E. Di Benedetto: Palermo - varia XIX – XX secolo,,collezione,VII (225),CC BY SA 4.0,"Palazzo Villarosa, Palermo",Palermo,38.122867,13.356649,https://www.flickr.com/photos/biblioteca-comunale-palermo/30072988228
30073134058,https://farm2.staticflickr.com/1767/30073134058_7a263ecf3f_o.jpg,Palermo – Villa Trabia,"G. Valdes, Palermo","Di Benedetto, Enrico",Collezione del Fondo Di Benedetto,Biblioteca comunale di Palermo - Sezione manoscritti e rari,226,pp. 401. E. Di Benedetto: Palermo - varia XIX – XX secolo,,collezione,VII (226),CC BY SA 4.0,"Villa Trabia, Palermo",Palermo,38.129695,13.347015,https://www.flickr.com/photos/biblioteca-comunale-palermo/30073134058
30073151108,https://farm2.staticflickr.com/1835/30073151108_70e3414ba4_o.jpg,Palermo – Villino Starrabba,,"Di Benedetto, Enrico",Collezione del Fondo Di Benedetto,Biblioteca comunale di Palermo - Sezione manoscritti e rari,228,pp. 401. E. Di Benedetto: Palermo - varia XIX – XX secolo,,collezione,VII (228),CC BY SA 4.0,"Villino Starrabba, Piazza Verdi, Palermo",Palermo,38.121036,13.356928,https://www.flickr.com/photos/biblioteca-comunale-palermo/30073151108
30073607128,https://farm2.staticflickr.com/1819/30073607128_fb193e5391_o.jpg,Palermo – Villa Tasca,"Stengel &amp; Co., Dresda","Di Benedetto, Enrico",Collezione del Fondo Di Benedetto,Biblioteca comunale di Palermo - Sezione manoscritti e rari,237,pp. 401. E. Di Benedetto: Palermo - varia XIX – XX secolo,,collezione,VII (237),CC BY SA 4.0,"Villa Tasca, Palermo",Palermo,38.102312,13.328905,https://www.flickr.com/photos/biblioteca-comunale-palermo/30073607128
30073845578,https://farm2.staticflickr.com/1838/30073845578_868815cac3_o.jpg,Palermo – Villa Tasca,,"Di Benedetto, Enrico",Collezione del Fondo Di Benedetto,Biblioteca comunale di Palermo - Sezione manoscritti e rari,244,pp. 401. E. Di Benedetto: Palermo - varia XIX – XX secolo,,collezione,VII (244),CC BY SA 4.0,"Villa Tasca, Palermo",Palermo,38.102295,13.329012,https://www.flickr.com/photos/biblioteca-comunale-palermo/30073845578
30073926638,https://farm2.staticflickr.com/1800/30073926638_45a2cc9ac9_o.jpg,Saluti Palermo – Villa Tasca,"Dr. Trenkler Co., Lipsia","Di Benedetto, Enrico",Collezione del Fondo Di Benedetto,Biblioteca comunale di Palermo - Sezione manoscritti e rari,247,pp. 401. E. Di Benedetto: Palermo - varia XIX – XX secolo,,collezione,VII (247),CC BY SA 4.0,"Villa Tasca, Palermo",Palermo,38.102245,13.328926,https://www.flickr.com/photos/biblioteca-comunale-palermo/30073926638
30393165247,https://farm2.staticflickr.com/1952/30393165247_cc72572668_o.jpg,Petit boudoir,,"Di Benedetto, Enrico",Collezione del Fondo Di Benedetto,Biblioteca comunale di Palermo - Sezione manoscritti e rari,349,pp. 401. E. Di Benedetto: Palermo - varia XIX – XX secolo,,collezione,VII (349),CC BY SA 4.0,"Villa Igiea, Palermo",Palermo,38.145307,13.370146,https://www.flickr.com/photos/biblioteca-comunale-palermo/30393165247
30393165357,https://farm2.staticflickr.com/1903/30393165357_0bb50e598a_o.jpg,Le grand escalier du Cercle,,"Di Benedetto, Enrico",Collezione del Fondo Di Benedetto,Biblioteca comunale di Palermo - Sezione manoscritti e rari,348,pp. 401. E. Di Benedetto: Palermo - varia XIX – XX secolo,,collezione,VII (348),CC BY SA 4.0,"Villa Igiea, Palermo",Palermo,38.145307,13.370146,https://www.flickr.com/photos/biblioteca-comunale-palermo/30393165357
30393165547,https://farm2.staticflickr.com/1917/30393165547_9dc04ce00b_o.jpg,Five o' clock,,"Di Benedetto, Enrico",Collezione del Fondo Di Benedetto,Biblioteca comunale di Palermo - Sezione manoscritti e rari,346,pp. 401. E. Di Benedetto: Palermo - varia XIX – XX secolo,,collezione,VII (346),CC BY SA 4.0,"Villa Igiea, Palermo",Palermo,38.145307,13.370146,https://www.flickr.com/photos/biblioteca-comunale-palermo/30393165547
31458761988,https://farm2.staticflickr.com/1929/31458761988_606c30bc43_o.jpg,Palermo – Villa Igiea,,"Di Benedetto, Enrico",Collezione del Fondo Di Benedetto,Biblioteca comunale di Palermo - Sezione manoscritti e rari,313,pp. 401. E. Di Benedetto: Palermo - varia XIX – XX secolo,,collezione,VII (313),CC BY SA 4.0,"Villa Igiea, Palermo",Palermo,38.145307,13.370146,https://www.flickr.com/photos/biblioteca-comunale-palermo/31458761988
31458861848,https://farm2.staticflickr.com/1967/31458861848_27942c8b05_o.jpg,,,,,,,,,,,,,,38.145392,13.371133,https://www.flickr.com/photos/biblioteca-comunale-palermo/31458861848
33195306728,https://farm8.staticflickr.com/7802/33195306728_7d57cff1c2_o.jpg,Palermo - Villa Giulia,,,Collezione del Fondo Di Benedetto,Biblioteca comunale di Palermo - Sezione manoscritti e rari,01,pp. 401. E. Di Benedetto: Palermo - varia XIX – XX secolo,,collezione,VIII (01),CC BY SA 4.0,"Palermo, Villa Giulia",Palermo,38.113608,13.375511,https://www.flickr.com/photos/biblioteca-comunale-palermo/33195306728
33195418708,https://farm8.staticflickr.com/7924/33195418708_b2aedb2475_o.jpg,Palermo - Villa Giulia Piazza del Centro,,,Collezione del Fondo Di Benedetto,Biblioteca comunale di Palermo - Sezione manoscritti e rari,03,pp. 401. E. Di Benedetto: Palermo - varia XIX – XX secolo,,collezione,VIII (03),CC BY SA 4.0,"Palermo, Villa Giulia",Palermo,38.113709,13.375511,https://www.flickr.com/photos/biblioteca-comunale-palermo/33195418708
33195570758,https://farm8.staticflickr.com/7825/33195570758_7b6e80c59f_o.jpg,08 Palermo Villa Giulia,,,Collezione del Fondo Di Benedetto,Biblioteca comunale di Palermo - Sezione manoscritti e rari,08,pp. 401. E. Di Benedetto: Palermo - varia XIX – XX secolo,,collezione,VIII (08),CC BY SA 4.0,"Palermo, Villa Giulia",Palermo,38.113557,13.375532,https://www.flickr.com/photos/biblioteca-comunale-palermo/33195570758
37233782634,https://farm5.staticflickr.com/4501/37233782634_92884ec795_o.jpg,"Cala e Monte Pellegrino""",,"Di Benedetto, Enrico",Collezione del Fondo Di Benedetto,Biblioteca comunale di Palermo - Sezione manoscritti e rari,3,pp. 418. E. Di Benedetto: Palermo - varia XIX – XX secolo,,collezione,VI (3),CC BY SA 4.0,"Cala, Chiesa S. Maria della Catena, Castello a Mare, Palermo",Palermo,38.119297,13.369009,https://www.flickr.com/photos/biblioteca-comunale-palermo/37233782634
37327064554,https://farm5.staticflickr.com/4498/37327064554_83640ce042_o.jpg,Palermo - La Cala,,"Di Benedetto, Enrico",Collezione del Fondo Di Benedetto,Biblioteca comunale di Palermo - Sezione manoscritti e rari,7,pp. 418. E. Di Benedetto: Palermo - varia XIX – XX secolo,,collezione,VI (7),CC BY SA 4.0,"La Cala, Palermo",Palermo,38.119221,13.367174,https://www.flickr.com/photos/biblioteca-comunale-palermo/37327064554
37349785504,https://farm5.staticflickr.com/4470/37349785504_a180f94057_o.jpg,Palermo – Cala,,"Di Benedetto, Enrico",Collezione del Fondo Di Benedetto,Biblioteca comunale di Palermo - Sezione manoscritti e rari,16,pp. 418. E. Di Benedetto: Palermo - varia XIX – XX secolo,,collezione,VI (16),CC BY SA 4.0,"La Cala, porto, Castello a Mare, porta Carbone, Palermo",Palermo,38.119221,13.367174,https://www.flickr.com/photos/biblioteca-comunale-palermo/37349785504
37349974174,https://farm5.staticflickr.com/4444/37349974174_b2e660063c_o.jpg,Palermo – Cala,,"Di Benedetto, Enrico",Collezione del Fondo Di Benedetto,Biblioteca comunale di Palermo - Sezione manoscritti e rari,18,pp. 418. E. Di Benedetto: Palermo - varia XIX – XX secolo,,collezione,VI (18),CC BY SA 4.0,"La Cala, porto, Monte Pellegrino, Palermo",Palermo,38.119221,13.367174,https://www.flickr.com/photos/biblioteca-comunale-palermo/37349974174
37350169294,https://farm5.staticflickr.com/4465/37350169294_1d22b81c33_o.jpg,Palermo – La Cala,,"Di Benedetto, Enrico",Collezione del Fondo Di Benedetto,Biblioteca comunale di Palermo - Sezione manoscritti e rari,20,pp. 418. E. Di Benedetto: Palermo - varia XIX – XX secolo,,collezione,VI (20),CC BY SA 4.0,"La Cala, porto, Monte Pellegrino, Palermo",Palermo,38.119221,13.367174,https://www.flickr.com/photos/biblioteca-comunale-palermo/37350169294
37352462054,https://farm5.staticflickr.com/4500/37352462054_d57139d4d6_o.jpg,Palermo - Castello,,"Di Benedetto, Enrico",Collezione del Fondo Di Benedetto,Biblioteca comunale di Palermo - Sezione manoscritti e rari,26,pp. 418. E. Di Benedetto: Palermo - varia XIX – XX secolo,,collezione,VI (26),CC BY SA 4.0,"Porto, Castello a Mare, un Morituro, Palermo",Palermo,38.120884,13.367528,https://www.flickr.com/photos/biblioteca-comunale-palermo/37352462054
37398006534,https://farm5.staticflickr.com/4449/37398006534_3c33917c1b_o.jpg,"Palermo - Porto, Antemurale e Monte Pellegrino",,"Di Benedetto, Enrico",Collezione del Fondo Di Benedetto,Biblioteca comunale di Palermo - Sezione manoscritti e rari,28,pp. 418. E. Di Benedetto: Palermo - varia XIX – XX secolo,,collezione,VI (28),CC BY SA 4.0,"Porto, Monte Pellegrino, Antemurale, stazione marittima, molo, Palermo",Palermo,38.127332,13.365780,https://www.flickr.com/photos/biblioteca-comunale-palermo/37398006534
37398117164,https://farm5.staticflickr.com/4482/37398117164_28a52c08bd_o.jpg,Palermo - Stazione di caricamento nel porto,,"Di Benedetto, Enrico",Collezione del Fondo Di Benedetto,Biblioteca comunale di Palermo - Sezione manoscritti e rari,30,pp. 418. E. Di Benedetto: Palermo - varia XIX – XX secolo,,collezione,VI (30),CC BY SA 4.0,"Porto, Monte Pellegrino, carretti siciliani, stazione di caricamento, molo, banchina, Palermo",Palermo,38.127332,13.365780,https://www.flickr.com/photos/biblioteca-comunale-palermo/37398117164
37398224024,https://farm5.staticflickr.com/4510/37398224024_e6ed4c6ac5_o.jpg,Palermo - Via Borgo,,"Di Benedetto, Enrico",Collezione del Fondo Di Benedetto,Biblioteca comunale di Palermo - Sezione manoscritti e rari,31,pp. 418. E. Di Benedetto: Palermo - varia XIX – XX secolo,,collezione,VI (31),CC BY SA 4.0,"Porto, Monte Pellegrino, via Borgo, molo, carretti siciliani, banchina, Palermo",Palermo,38.112747,13.378686,https://www.flickr.com/photos/biblioteca-comunale-palermo/37398224024
37566824875,https://farm5.staticflickr.com/4516/37566824875_7bdfb2a2c6_o.jpg,Palermo - via Lolli,,"Di Benedetto, Enrico",Collezione del Fondo Di Benedetto,Biblioteca comunale di Palermo - Sezione manoscritti e rari,248,pp. 418. E. Di Benedetto: Palermo - varia XIX – XX secolo,,collezione,VI (248),CC BY SA 4.0,"Palermo, via Lolli, via Dante",Palermo,38.123517,13.349483,https://www.flickr.com/photos/biblioteca-comunale-palermo/37566824875
37566908965,https://farm5.staticflickr.com/4557/37566908965_84dd0b63bf_o.jpg,Palermo - corso Vittorio Emanuele,,"Di Benedetto, Enrico",Collezione del Fondo Di Benedetto,Biblioteca comunale di Palermo - Sezione manoscritti e rari,249,pp. 418. E. Di Benedetto: Palermo - varia XIX – XX secolo,,collezione,VI (249),CC BY SA 4.0,"Palermo, corso Vittorio Emanuele, piazza Bologni",Palermo,38.115060,13.359664,https://www.flickr.com/photos/biblioteca-comunale-palermo/37566908965
37569810265,https://farm5.staticflickr.com/4549/37569810265_3c9f147b64_o.jpg,Palermo - corso Vittorio Emanuele e palazzo Riso,"ediz. G. Pedone Lauriel, Palermo","Di Benedetto, Enrico",Collezione del Fondo Di Benedetto,Biblioteca comunale di Palermo - Sezione manoscritti e rari,251,pp. 418. E. Di Benedetto: Palermo - varia XIX – XX secolo,,collezione,VI (251),CC BY SA 4.0,"Palermo, corso Vittorio Emanuele",Palermo,38.115161,13.359889,https://www.flickr.com/photos/biblioteca-comunale-palermo/37569810265
37570438034,https://farm5.staticflickr.com/4564/37570438034_f026d91cc2_o.jpg,Palermo - barca a vela,,"Di Benedetto, Enrico",Collezione del Fondo Di Benedetto,Biblioteca comunale di Palermo - Sezione manoscritti e rari,47,pp. 418. E. Di Benedetto: Palermo - varia XIX – XX secolo,,collezione,VI (47),CC BY SA 4.0,"Porto, barche, molo, banchina, navi, Palermo",Palermo,38.132328,13.362936,https://www.flickr.com/photos/biblioteca-comunale-palermo/37570438034
37570874694,https://farm5.staticflickr.com/4585/37570874694_2d30a9190e_o.jpg,Palermo - Barche a vela,,"Di Benedetto, Enrico",Collezione del Fondo Di Benedetto,Biblioteca comunale di Palermo - Sezione manoscritti e rari,50,pp. 418. E. Di Benedetto: Palermo - varia XIX – XX secolo,,collezione,VI (50),CC BY SA 4.0,"Porto, barche, molo, banchina, navi, Monte Pellegrino, Palermo",Palermo,38.132328,13.362936,https://www.flickr.com/photos/biblioteca-comunale-palermo/37570874694
37571331374,https://farm5.staticflickr.com/4579/37571331374_3b4e5b0da7_o.jpg,Palermo - Barche da Pesca,,"Di Benedetto, Enrico",Collezione del Fondo Di Benedetto,Biblioteca comunale di Palermo - Sezione manoscritti e rari,53,pp. 418. E. Di Benedetto: Palermo - varia XIX – XX secolo,,collezione,VI (53),CC BY SA 4.0,"Porto, barche, molo, pescatori, banchina, navi, Monte Pellegrino, Palermo",Palermo,38.130640,13.364503,https://www.flickr.com/photos/biblioteca-comunale-palermo/37571331374
37571411254,https://farm5.staticflickr.com/4560/37571411254_728fa84337_o.jpg,Palermo - Banchina d'approdo,,"Di Benedetto, Enrico",Collezione del Fondo Di Benedetto,Biblioteca comunale di Palermo - Sezione manoscritti e rari,54,pp. 418. E. Di Benedetto: Palermo - varia XIX – XX secolo,,collezione,VI (54),CC BY SA 4.0,"Porto, barche, molo, pescatori, banchina, navi, Monte Pellegrino, Palermo",Palermo,38.130640,13.364503,https://www.flickr.com/photos/biblioteca-comunale-palermo/37571411254
37648767075,https://farm5.staticflickr.com/4577/37648767075_13b3f6feed_o.jpg,Piazza Vigliena,,"Di Benedetto, Enrico",Collezione del Fondo Di Benedetto,Biblioteca comunale di Palermo - Sezione manoscritti e rari,162,pp. 418. E. Di Benedetto: Palermo - varia XIX – XX secolo,,collezione,VI (162),CC BY SA 4.0,"Piazza Vigliena, Quattro Canti, Quattro Cantoni Palermo",Palermo,38.115726,13.361413,https://www.flickr.com/photos/biblioteca-comunale-palermo/37648767075
37649951735,https://farm5.staticflickr.com/4533/37649951735_31114b0160_o.jpg,Piazza Pretoria,"Devaux, Paris","Di Benedetto, Enrico",Collezione del Fondo Di Benedetto,Biblioteca comunale di Palermo - Sezione manoscritti e rari,169,pp. 418. E. Di Benedetto: Palermo - varia XIX – XX secolo,,collezione,VI (169),CC BY SA 4.0,"Piazza Pretoria, Piazza della Vergona, Palermo",Palermo,38.115415,13.362078,https://www.flickr.com/photos/biblioteca-comunale-palermo/37649951735
37669807164,https://farm5.staticflickr.com/4569/37669807164_a594a76ca1_o.jpg,Palermo - Porta Nuova – Costruita nel 1668,,"Di Benedetto, Enrico",Collezione del Fondo Di Benedetto,Biblioteca comunale di Palermo - Sezione manoscritti e rari,101,pp. 418. E. Di Benedetto: Palermo - varia XIX – XX secolo,,collezione,VI (101),CC BY SA 4.0,"porta Nuova, Palermo",Palermo,38.112213,13.352615,https://www.flickr.com/photos/biblioteca-comunale-palermo/37669807164
37669853424,https://farm5.staticflickr.com/4537/37669853424_2349233987_o.jpg,Palermo - Porta Nuova – Interno,,"Di Benedetto, Enrico",Collezione del Fondo Di Benedetto,Biblioteca comunale di Palermo - Sezione manoscritti e rari,102,pp. 418. E. Di Benedetto: Palermo - varia XIX – XX secolo,,collezione,VI (102),CC BY SA 4.0,"porta Nuova, Palermo",Palermo,38.112213,13.352615,https://www.flickr.com/photos/biblioteca-comunale-palermo/37669853424
37670335134,https://farm5.staticflickr.com/4570/37670335134_8da0b3d55a_o.jpg,Palermo - Palermo - Banchina S. Lucia - Approdo del postale per Napoli,,"Di Benedetto, Enrico",Collezione del Fondo Di Benedetto,Biblioteca comunale di Palermo - Sezione manoscritti e rari,66,pp. 418. E. Di Benedetto: Palermo - varia XIX – XX secolo,,collezione,VI (66),CC BY SA 4.0,"Porto, barche, navi, molo, banchina, Palermo",Palermo,38.130176,13.363623,https://www.flickr.com/photos/biblioteca-comunale-palermo/37670335134
37670511904,https://farm5.staticflickr.com/4585/37670511904_ca0172b37f_o.jpg,Palermo - Partenza per l'America,,"Di Benedetto, Enrico",Collezione del Fondo Di Benedetto,Biblioteca comunale di Palermo - Sezione manoscritti e rari,68,pp. 418. E. Di Benedetto: Palermo - varia XIX – XX secolo,,collezione,VI (68),CC BY SA 4.0,"Porto, barche, navi, molo, banchina, Lanterna, faro, Palermo",Palermo,38.132058,13.373322,https://www.flickr.com/photos/biblioteca-comunale-palermo/37670511904
37670729134,https://farm5.staticflickr.com/4521/37670729134_223b00d10b_o.jpg,Palermo - Al Porto,,"Di Benedetto, Enrico",Collezione del Fondo Di Benedetto,Biblioteca comunale di Palermo - Sezione manoscritti e rari,70,pp. 418. E. Di Benedetto: Palermo - varia XIX – XX secolo,,collezione,VI (70),CC BY SA 4.0,"Porto, barche, navi, molo, Palermo",Palermo,38.132058,13.373322,https://www.flickr.com/photos/biblioteca-comunale-palermo/37670729134
37688576895,https://farm5.staticflickr.com/4532/37688576895_e09df56801_o.jpg,Palermo - Piazza Garraffo,"Devaux, Paris","Di Benedetto, Enrico",Collezione del Fondo Di Benedetto,Biblioteca comunale di Palermo - Sezione manoscritti e rari,186,pp. 418. E. Di Benedetto: Palermo - varia XIX – XX secolo,,collezione,VI (186),CC BY SA 4.0,"Piazza Garraffo, Palermo",Palermo,38.117583,13.364235,https://www.flickr.com/photos/biblioteca-comunale-palermo/37688576895
37689403045,https://farm5.staticflickr.com/4571/37689403045_68bbc10a5d_o.jpg,Palermo Nuova - Caserma Legionale Carabinieri - Corso Alberto Amedeo,,"Di Benedetto, Enrico",Collezione del Fondo Di Benedetto,Biblioteca comunale di Palermo - Sezione manoscritti e rari,257,pp. 418. E. Di Benedetto: Palermo - varia XIX – XX secolo,,collezione,VI (257),CC BY SA 4.0,"Palermo, corso Alberto Amedeo, Legione dei Carabinieri",Palermo,38.112325,13.352208,https://www.flickr.com/photos/biblioteca-comunale-palermo/37689403045
37689992055,https://farm5.staticflickr.com/4543/37689992055_cbe6d23712_o.jpg,Palermo - Unione Militare - La sede della filiale di Palermo,,"Di Benedetto, Enrico",Collezione del Fondo Di Benedetto,Biblioteca comunale di Palermo - Sezione manoscritti e rari,258,pp. 418. E. Di Benedetto: Palermo - varia XIX – XX secolo,,collezione,VI (258),CC BY SA 4.0,"Palermo, corso Vittorio Emanuele,",Palermo,38.112291,13.352594,https://www.flickr.com/photos/biblioteca-comunale-palermo/37689992055
37690235345,https://farm5.staticflickr.com/4529/37690235345_7282446cef_o.jpg,Palermo - C.V.E. - Distretto Militare,,"Di Benedetto, Enrico",Collezione del Fondo Di Benedetto,Biblioteca comunale di Palermo - Sezione manoscritti e rari,260,pp. 418. E. Di Benedetto: Palermo - varia XIX – XX secolo,,collezione,VI (260),CC BY SA 4.0,"Palermo, corso Vittorio Emanuele,",Palermo,38.112223,13.352465,https://www.flickr.com/photos/biblioteca-comunale-palermo/37690235345
37696126154,https://farm5.staticflickr.com/4574/37696126154_9c7249f919_o.jpg,Porta Felice,"Dr. Trenkler Co., Lipsia","Di Benedetto, Enrico",Collezione del Fondo Di Benedetto,Biblioteca comunale di Palermo - Sezione manoscritti e rari,129,pp. 418. E. Di Benedetto: Palermo - varia XIX – XX secolo,,collezione,VI (129),CC BY SA 4.0,"Porta Felice, corso Vittorio Emanuele, Palermo",Palermo,38.120346,13.371262,https://www.flickr.com/photos/biblioteca-comunale-palermo/37696126154
37696321824,https://farm5.staticflickr.com/4519/37696321824_6492b8552a_o.jpg,Palermo - Nel Porto,,"Di Benedetto, Enrico",Collezione del Fondo Di Benedetto,Biblioteca comunale di Palermo - Sezione manoscritti e rari,79,pp. 418. E. Di Benedetto: Palermo - varia XIX – XX secolo,,collezione,VI (79),CC BY SA 4.0,"Porto, barche, navi, piroscafo, molo, banchina, Palermo",Palermo,38.128885,13.364653,https://www.flickr.com/photos/biblioteca-comunale-palermo/37696321824
37697067894,https://farm5.staticflickr.com/4572/37697067894_336171489d_o.jpg,Palermo - La Cala (dettaglio) di Porta di Piedigrotta,"Devaux, Paris","Di Benedetto, Enrico",Collezione del Fondo Di Benedetto,Biblioteca comunale di Palermo - Sezione manoscritti e rari,133,pp. 418. E. Di Benedetto: Palermo - varia XIX – XX secolo,,collezione,VI (133),CC BY SA 4.0,"La Cala, porta di Piedigrotta, Palermo",Palermo,38.120884,13.367528,https://www.flickr.com/photos/biblioteca-comunale-palermo/37697067894
